venue_id,filename,address,lat,lng,event_count
411,백패커스홈_Backpackers_Home,제주도 서귀포시 서귀동 315-2,33.2473049835278700,126.5590350005074600,5
1042,작은따옴표_2호점,서울시 관악구 신원동 1635-63 지하 1층,37.4801295999124450,126.9280759660684600,1
1055,구_송정초등학교,부산광역시 해운대구 송정동,35.1836575940408000,129.2036694394074300,3
1029,001클럽,서울시 마포구 서교동  360-18,37.5509964014669300,126.9240289847084700,1
477,1971바,서울시 동대문구 회기동 42-50,37.5925178737545900,127.0518132027097200,38
573,1974PLY,전라남도 여수시 문수동 189-5,34.7517611771912700,127.7011328862326400,1
518,1984,서울특별시 마포구 동교동 158-24 혜원빌딩 1층,37.5573927290223100,126.9228635662869600,4
486,2013_고양락페스티벌,경기도 고양시 일산서구 대화동 2606,37.6645531969778350,126.7545264716958800,3
464,2호선강남역,서울 강남구 역삼동 821-1,37.4986134225998500,127.0280562506182600,7
845,3ㅈhouse,종로구 가회동 33-3번지,37.5829257105897700,126.9831898453769800,1
253,5POINTZ_ART_SPACE,서울 강남구 신사 551-7,37.5218960466778500,127.0239332883348000,1
652,63컨벤션센터,서울시 영등포구 여의도동 60,37.5198346185040800,126.9400737902884800,4
782,A_Hall,경기도 안양시 만안구 안양동 534,37.3848162316342250,126.9337948585008400,1
514,aA_디자인_뮤지엄,서울 마포구 서교동 408-11,37.5495566366435940,126.9213235529866900,7
17,ALL_OF_ROCK_A.O.R,마포구 서교동 325-26,37.5548529949230100,126.9303989414704600,50
327,Almost_Famous,부산 대연3동 55-2,35.1373464278009200,129.1012885025194500,9
416,artspace_behive,서울특별시 강남구 청담동 78-5,37.5271245165318800,127.0411124573936400,1
959,B612.favori,서울특별시 강동구 천호동 466-18,37.5421253557062300,127.1210965513344900,6
310,Bar_Exit,서울 마포구 서교동 362-15,37.5518642833356300,126.9229293793409300,1
382,bar_sha,서울특별시 마포구 상수동 93-86,37.5490927740447100,126.9228372323378100,10
187,Bar001,서울 마포구 합정동 412-1,37.5484585522683700,126.9177094041044100,4
308,Burgermine,서울 용산구 용산동2가 45-9,37.5414633073998000,126.9873324345408300,1
127,c_cloud,서울시 마포구 합정동 412-26,37.5486670827282940,126.9169835523194000,202
23,CAFE_COMMON,서울시 마포구 서교동 400-16,37.5490683338663000,126.9187181332820000,11
284,Cafe_Dorothy,서울특별시 서초구 서초4동 1303-31,37.5034687572898700,127.0244570579200300,1
1126,CGV_수원, 경기도 수원시 팔달구 덕영대로 924 (매산로1가  수원역사 6층),37.2656785788000000,127.0000947002000000,1
1186,CGV_씨네_라이브러리,서울특별시 중구 퇴계로 123 (명동  하이해리엇 10층),37.5612660781000000,126.9853632831000000,1
1031,CGV_일산,경기도 고양시 일산동구 정발산로 24 ,37.6558956887103800,126.7720388186548200,1
53,CJ_아지트_CJ_AZIT,서울특별시 마포구 신정동 145-9,37.5442645303540000,126.9301974147870000,38
389,Club_Broken_Teeth브로큰티스,서울시 마포구 망원동 378-15,37.5556246059150100,126.9098607769693500,1
238,Club_Mansion,서울시 마포구 서교동 368-22,37.5516135119738550,126.9198379306891300,1
365,Collage_꼴라쥬플러스,서울 강남구 청담동 91-5,37.5241796389579960,127.0423643282337000,1
192,creative_i_bar,서울 마포구 서교동 342-2,37.5540898248377460,126.9258332574007500,1
368,CTS아트홀,서울특별시 동작구 노량진2동 27-2,37.5128813900734700,126.9369730548474400,2
131,CY씨어터_가톨릭청년회관_다리,서울시 마포구 동교동 158-2,37.5572270578536000,126.9230505040399900,6
1175,DDP_잔디언덕,서울시 중구 을지로 281,37.5668131264000000,127.0096257245000000,2
1067,DDP_팔거리_광장,서울특별시 중구 을지로 281,37.5671697796204850,127.0112240286511700,1
307,Deeleebob_Music,서울 용산구 용산동2가 37-4,37.5428256213933600,126.9874453298025100,1
61,EBS_스페이스_공감,서울시 강남구 도곡동 463,37.4866185493111460,127.0471092529916700,85
273,FABRIC,부산시 남구 대연동 60-13,35.1357263976856800,129.1013785290900300,1
106,FB소울하우스,마포구 동교동 186-15,37.5552940288821100,126.9325001448587600,22
133,Gas금정구예술공연지원센터,부산광역시 금정구 장전동 420-47,35.2305888307627840,129.0852909467397200,2
977,GBN_라이브_하우스,영등포구 문래동3가 54-41 지하1층,37.5137353505935100,126.8965402458549600,8
987,hq_광안,부산광역시 수영구 광안해변로 237 테마타워,35.1547230548450200,129.1199242960215000,3
88,Jess,서울특별시 마포구 서교동 364-26,37.5522601768807360,126.9221186836901400,7
390,JNOVA제이노바,서울 서대문구 창천동 92-6,37.5604588000888400,126.9331734504977300,71
779,KTandG_상상마당_갤러리,서울시 마포구 어울마당로 65,37.5509584166829300,126.9210640598040200,1
252,LG아트센터,서울 강남구 역삼동 679-0[논현로 508],37.5020961989742640,127.0367972229973300,1
558,LIG아트홀_강남,서울시 강남구 역삼동 649-11,37.4991949165548300,127.0302669809456300,2
659,LIG아트홀_부산,부산광역시 동구 범일동 830-30,35.1382878271754960,129.0640934104264400,5
93,LIG아트홀_역삼,서울특별시 강남구 역삼동 649-11 ,37.4991967534083000,127.0302639250330000,1
448,LIG아트홀_합정,서울시 마포구 양화로 19,37.5491421201907600,126.9112130898164400,13
554,MAMO_Project_Space,서울시 마포구 서교동 361-18 스타리나잇 건물 3층 (121-837) ,37.5512736107239460,126.9235669818878900,1
288,MOONNIGHT,서울 용산구 이태원동 132-3,37.5335918064142100,126.9951983246156600,13
278,nest_NADA,서울 마포구 서교동 336-5[와우산로29길 15],37.5547655655208100,126.9288327180712600,893
301,New_Phillies,서울 용산구 용산동2가 44-7[신흥로 35],37.5416434795941900,126.9871151493809700,4
292,office_coffee,서울특별시 마포구 창전동 390-30 ,37.5474236178289700,126.9276098242826000,2
306,Orange_Tree_Indigo,서울 용산구 용산동2가 45-10,37.5413083317929260,126.9872917295159700,3
772,SAMS_아트센터,서울특별시 마포구 동교로17길 34,37.5564614662341040,126.9155036331141600,12
873,SAMS_아트센터,마포구 서교동 451-41,37.5564614565142600,126.9154900521418600,5
1015,SETEC_제3전시실,서울 강남구 남부순환로 3104,37.4956773977736800,127.0719118019178400,1
500,SK올림픽핸드볼경기장,서울특별시 송파구 방이동 88 올림픽공원,37.5203411391506200,127.1155184444505400,3
1123,T325,서울특별시 강남구 테헤란로 325 ,37.5042459847000000,127.0467584195000000,1
556,tbs_eFM,서울 마포구 매봉산로 31,37.5757253465000000,126.8899747463000000,2
638,TCC아트홀,서울시 영등포구 국회대로 539 TCC센터 지하1층,37.5293104234320900,126.8948896107362600,1
304,The_Local,서울특별시 용산구 용산동2가 38-10,37.5424291668920060,126.9872960426690200,1
414,Under99,광주 동구 궁동 51-5 ,35.1502400175932100,126.9181020230970200,3
295,V.F.W._Canteen,서울특별시 용산구 용산동2가 44-18,37.5412938762062400,126.9869658572451100,2
45,ZOO,서울시 마포구 서교동 354-2,37.5545916606898000,126.9217042674340000,6
376,ㅋㅋ_라이브씻,서울 강남구 선릉로 805-0[신사동 666-8],37.5241285564955500,127.0389832300035500,15
351,小年소년,서울 마포구 상수동 341-5,37.5460074035977200,126.9222746843410200,1
178,가든파이브_옥상정원,서울특별시 송파구 문정동 280 ,37.4800759184744100,127.1233083943905300,6
811,가락_스튜디오,대구 수성구 지범로 247,35.8176407029635400,128.6452115964851500,1
736,가로수길_팝,서울특별시 강남구 신사동 512-9 mgtower 202호,37.5179557948032640,127.0212930899921700,3
266,가산디지털단지역_앞,서울 금천구 가산디지털1로 168,37.4799958892662840,126.8825342769373500,4
280,감성달빛,서울 성북구 보문로30가길 27-2,37.5892715670183900,127.0213722666963700,262
709,감성클럽_보헤미안,광주광역시 동구 문화전당로 43 (밀러타임 지하) ,35.1463187406141700,126.9185605589465500,8
664,강남역_아이디어팩토리,강남구 역삼동 825-22 미림타워 별관 지하2층 아이디어팩토리,37.4973642039565200,127.0297460481060900,14
463,강남역_허브플라자,서울 강남구 역삼동 821-1,37.4986134225998500,127.0280562506182600,15
126,강동아트센터,서울특별시 강동구 상일동 477,37.5511206518095900,127.1575230212569600,4
693,강릉_러쉬,강원도 강릉시 금학동 31-2 ,37.7535958835596900,128.8968610141845400,1
428,강북구청,강북구 도봉로 89길 13,37.6391861686192800,127.0254504300803800,1
804,강제집행중_라떼킹강남역점,서울시 서초구 서초동 1309-8,37.5018415768539400,127.0246450953657800,1
462,강촌역_프로포즈_광장,강원 춘천시 남산면 방곡리,37.7949070131986500,127.6401396223517100,1
631,개리슨_바,마포구 서교동 337-3번지,37.5544488056542700,126.9294848890149900,1
511,갤러리_카페_밀,경기 고양시 일산동구 풍동 613번지 3층,37.6739991829531900,126.7920967960191000,1
397,건국대학교_새천년관,서울 광진구 화양동 1-0[능동로 120],37.5425412944053250,127.0737267542618100,2
996,건대_미니펍,서울 광진구 동일로22길 59 2층,37.5416995616603160,127.0676290271365200,1
1092,건대_커먼그라운드,서울특별시 광진구 아차산로 200 ,37.5411274582000000,127.0659810218000000,1
570,경북대학교_대강당,대구광역시 북구 산격동 1370,35.8908674613939950,128.6098215688277800,3
1152,경산실내체육관,경상북도 경산시 남매로 100 경산생활체육공원 ,35.8211170200000000,128.7437747807000000,1
888,경성대학교_콘서트홀,부산 남구 수영로 309,35.1384367596212800,129.1000975359023600,1
1187,경성홀,노고산동 56-6,37.5544083184000000,126.9342698295000000,1
341,경주_메탈보이즈_metalboys,경북 경주시 성건동 584-29,35.8559592997087400,129.2031711870408200,2
1033,계단_밑_테이블,경기도 성남 동판교로52번길 25-15,37.3851944385310500,127.1138428694274600,1
1171,계양경기장,인천광역시 계양구 서운동 111,37.5349531900000000,126.7502361359000000,1
439,계원예대,경기 의왕시 내손1동,37.3782604965401000,126.9756932920569500,1
84,고고스2,서울시 마포구 서교동 407-2,37.5504189762638500,126.9228164341748800,352
1053,곡성_기차마을_전통시장,전라남도 곡성군 곡성읍 곡성로 856 ,35.2797674317845350,127.2984374832202700,1
887,골목바이닐앤펍,서울시 용산구 이태원동 557,37.5373465705245050,126.9871013563114100,1
780,곱창전골,서울특별시 마포구 와우산로 29길 8,37.5547767604832100,126.9294709993234700,8
827,공간,중구 신창동2가 35-3번지,35.1024510763352600,129.0290379209599200,2
1130,공간_비틀즈,서울 마포구 와우산로29길 27,37.5551040420000000,126.9283389627000000,6
995,공간EASY,경남 김해시 내외중앙로 35 4층,35.2331987529338450,128.8660487523784000,2
1146,공간봄,전라북도 전주시 완산구 어진길 51,35.8173921622000000,127.1517166013000000,1
123,공공일바,서울특별시 마포구 합정동 412-8,37.5484730772408640,126.9178632879801100,1
1124,공상온도,서울시 마포구 동교동 201-19 지하1,37.5565050150000000,126.9211487494000000,19
56,공중캠프_kuchu-camp空中キャンプ,서울시 마포구 서교동 325-9 지하1층,37.5547741503963550,126.9311550058923000,48
204,과천시민회관_야외공연장,경기도 과천시 중앙동 6-2 ,37.4279878695917000,126.9896812637054500,2
989,광림아트센터_장천홀,서울시 강남구 신사동 570-8,37.5242436773989640,127.0267837603475100,1
71,광주_네버마인드,광주 광역시 동구 장동 17-1,35.1528199525585600,126.9194540118669000,26
662,광주_부드러운직선,광주 광역시 북구 중흥동 275-4,35.1748929551037100,126.9149533343400700,6
1057,광주_비틀즈,광주광역시 북구 용봉동 1405-11 2층,35.1770016361137400,126.8958537933660200,1
240,광주_아시아문화마루쿤스트할레광주,광주광역시 동구 광산동 13-4,35.1460205434580300,126.9201454797576600,2
752,광주염주체육관,광주광역시 서구 금화로 278 구민생활관,35.1366340830836900,126.8791698397910500,1
890,광주음악창작소:Peakmusic,광주광역시 남구 사직길 17,35.1426134371576600,126.9149079158947700,3
405,광진교_8번가,서울특별시 강동구 천호2동 527-2,37.5451455455412000,127.1126869009311800,3
1151,광진문화재단_나루아트센터,서울특별시 광진구 능동로 76,37.5375712576000000,127.0705761545000000,1
352,광화문광장,서울 종로구 세종로 81-2,37.5719324688887000,126.9766539828787000,17
738,광흥창_퍼블리크,서울 마포구 구수동 68-29,37.5452170741309300,126.9323904269583200,3
77,구_프리버드1종료,서울시 마포구 서교동 364-22,37.5520941883418800,126.9218369328647200,599
183,구로아트밸리_예술극장,서울 구로구 구로동 101-0[가마산로25길 9-24],37.4965589670140250,126.8889628097839500,5
548,구리_파스날,경기도 구리시 수택동 487-2,37.5969342267103400,127.1439684196942600,2
896,국립극장_해오름극장,서울특별시 중구 장충동2가 14-67,37.5525741614711300,126.9995654309856800,1
706,국립소록도병원,전남 고흥군 도양읍 소록해안길 65,34.5116831738374500,127.1213714558451400,1
1156,국립현대미술관_서울관,서울시 종로구 삼청로 30,37.5786292900000000,126.9800889002000000,1
859,군포시문화예술회관,경기도 군포시 산본동 1101,37.3662801358982000,126.9272997339799600,7
560,그레이박스,서울특별시 강남구 신사동 634-16,37.5255355912466400,127.0342371049301800,1
727,그루브_스튜디오,서울시 마포구 동교동 203-40 ST빌딩 지층,37.5576040703262140,126.9209076568967900,1
458,그리다,부산광역시 남구 대연3동 564-19,35.1304129011708400,129.1003557500565400,1
1119,그리다꿈_합정점,마포구 합정동 412-27 ,37.5485373104000000,126.9169429576000000,1
375,그린_클라우드,서울시 마포구 창전동 6-4,37.5535691975331150,126.9289346302897400,1
867,극동아트홀,서울시 마포구 와우산로 56,37.5494462760858740,126.9233968381913800,1
159,글래스톤베리인천_Glastonbury,인천광역시 중구 신생동 2-6,37.4706491300173350,126.6254278593797800,47
980,글로리펍앤카페,서울 마포구 잔다리로3안길 31 3층 302호,37.5502185320515740,126.9194850507690000,5
289,금천아트캠프,서울 금천구 시흥대로 301,37.4579671791602350,126.8967199550932300,1
1001,기흥역사에버라인,경기 용인시 기흥구 중부대로 468,37.2754783021166000,127.1168480514435000,1
10,긱_라이브하우스_GEEK,서울시 마포구 동교동 185-10,37.5563892614297600,126.9320589181456400,56
1066,김광석_다시그리기_길,대구 중구 대봉동,35.8616784184397800,128.6043822124148300,1
582,김대중컨벤션센터,광주광역시 서구 치평동 1159-2,35.1468035950775640,126.8405089613525100,1
882,김류정카페,서울시 관악구 신림동 1459-1번지,37.4868966723871250,126.9259663798454200,2
860,김치싸운즈,용산구 이태원동 278-8 2층,37.5392604924265500,126.9890562394276700,59
1112,깊은숲,마포구 독막로 27,37.5485046224000000,126.9165853993000000,3
1109,까페_성수,서울 성동구 성수동1가 668-30,37.5475425599000000,127.0424626853000000,2
988,까페창비,서울특별시 마포구 서교동 475-34 창비서교빌딩,37.5553989830096460,126.9115301881497000,1
408,깨방정,서울특별시 마포구 신촌로 12나길 30,37.5549597968348800,126.9341210716002400,21
732,꽁치_극장,강원도 강릉시 주문진읍 시장길 38 옥상,37.8911836207660600,128.8277651298349200,1
54,꽃땅_CCOTT_DDANG_BAR,서울시 용산구 한남동 683-31,37.5378097322823500,127.0018338903317500,26
916,꿈꾸는_시어터,대구광역시 남구 현충로148,35.8460424546834400,128.5803991075795800,1
191,꿈의숲_아트센터,서울특별시 강북구 번동 산28-6 ,37.6209786493934360,127.0408948529023100,14
644,나는섬,전북 군산시 개복동 11-4,35.9843868003070500,126.7141943870760800,2
1060,나니아의_옷장,성북구 동선동 4가 209번지 ,37.5946061735942200,127.0168399575889400,1
898,나니아의_옷장,서울 성북구,37.5893660233370000,127.0167029072619000,4
681,나비도꽃이었다꽃을떠나기전에는,서울시 마포구 서교동 409-19 지하 1층,37.5498020147512500,126.9217850074321900,6
354,나인스_에비뉴,서울 구로구 구로동 501-0[구로중앙로 134],37.4998987541072300,126.8841130860953000,1
561,나인홀,서울시 마포구 동교동 165-8 지하2층(홍대입구역 9번출구 연계),37.5560812579932060,126.9234488974755500,1
753,난지미술창작스튜디오,서울특별시 마포구 상암동 481-6,37.5709099398898660,126.8784493514232400,1
469,난지한강공원,서울 마포구 한강난지로 162-0[상암동 487-116],37.5628367895097950,126.8854255776976300,5
513,남부시장_청년몰_청년회관,전주시 전동3가 2-241번지,35.8121558653583200,127.1473471299664200,1
783,남산_화수목_아트홀,서울 용산구 소월로 268,37.5426520290939400,126.9911196729285900,1
170,남이섬Nami_Island,강원 춘천시 남산면 방하리 198-0,37.7915118171039500,127.5255540307499900,4
381,내여페_The_Stage,서울 종로구 동숭동 1-58,37.5822933890819100,127.0025224131278600,3
875,네츄럴하우스,서울시 서초구 양재동 74-1 ,37.4771763987139700,127.0356078713746000,1
138,노pd네콩볶는집,서울특별시 마포구 서교동 395-135,37.5505708143848100,126.9181628934583400,5
639,노리터_플레이스,서울특별시 마포구 독막로5길 5 지하 1층,37.5484478502411000,126.9178574118481300,18
176,노원_문화의_거리_야외무대,서울 노원구 상계1동,37.6798608584970300,127.0550235424904300,1
687,노을공원_월드컵_경기장_내,서울특별시 마포구 상암동 481-6,37.5709099398898660,126.8784493514232400,1
640,논지당,서울 서대문구 연세로 50,37.5638048150545400,126.9429316209865400,1
531,놀이하는_사람들,서울특별시 서대문구 창천동 53-96,37.5583333846693600,126.9348503787184500,3
603,누보,서울 마포구 서교동 330-21,37.5564365983859860,126.9268392518823800,2
954,뉴미들클래스,중구 성남동 111-1,35.5558344024356860,129.3193913993000300,1
1048,능동로_분수광장,서울특별시 광진구 능동로 120 ,37.5391724891471700,127.0747189073268700,1
130,다리살롱_가톨릭청년회관,서울시 마포구 동교동 158-2,37.5572270578536000,126.9230505040399900,11
434,다문화극장_샐러드붐,서울시 영등포구 문래동 2가 57-4 ,37.5139372529858260,126.8926421917553300,1
876,다소유,서울시 영등포구 영등포동 7가 70-1 2층,37.5250051132438640,126.9051495108862600,2
900,다원,경남 진주시 진양호로532번길 7,35.1924613751361760,128.0839241500277000,1
555,달리,서울특별시 마포구 서교동 373-6,37.5520846309506100,126.9183649410780800,4
840,달의_다락,서울특별시 마포구 합정동 411-7,37.5483434540282200,126.9180295335414900,1
830,달콤커피_광화문점,서울특별시 종로구 새문안로 92 1층,37.5697012461835900,126.9749069497527100,2
501,달콤커피_홍대점,서울시 마포구 서교동 358-37,37.5524589379283300,126.9229727668214200,2
831,당신의_여름,서울 마포구 서교동 333-11  4층,37.5551788628422100,126.9269310198201900,2
148,당인리극장, 서울특별시 마포구 합정동 361-20,37.5462701987054200,126.9166603111952600,1
480,닻올림,서울시 마포구 상수동 121-828,37.5473471647054640,126.9265720231675700,1
251,대구_URBAN,대구 중구 삼덕동 1가 18-1 번지,35.8678337779362700,128.5975278041236700,9
726,대구_겟_스페이스,대구 남구 현충로 233,35.8534221854953200,128.5827771231387800,4
544,대구_노보텔_샴페인홀,대구광역시 중구 문화동 11-1,35.8709834218180900,128.5977718798111800,1
345,대구_동성로_기타교실,대구시 중구 동성로3가 7-3번지,35.8683792103667200,128.5933671352274200,1
357,대구_라이브인디,대구시 중구 삼덕동 15-6,35.8671191015807500,128.5967872152864400,2
367,대구_수성아트피아,대구광역시 수성구 지산동 1137-3 ,35.8296367327038400,128.6281360025930400,3
838,대구_아트_팩토리_청춘,대구광역시 중구 대봉1동 20-35,35.8625981053269500,128.6043431853573200,1
275,대구_음악창고_HORUS,대구 중구 삼덕동 1가 21-23,35.8676905009667240,128.5982733333546800,9
431,대구_인디야,대구광역시 중구 명덕로 111,35.8568796076832600,128.5824562108864000,6
237,대구보건대_인당아트홀,대구 북구 태전동 산 7-1,35.9285767664201000,128.5435272618677800,2
623,대구봉산문화회관,대구광역시 중구 봉산동 125,35.8632166498555950,128.5966063144016000,1
750,대구실내체육관,대구광역시 북구 대구체육관로 39 대구체육관,35.8937557330662140,128.6030092915753800,3
334,대구어린이회관,대구 수성구 황금동 626-2,35.8449444782977050,128.6260623587950200,2
1097,대구전시컨벤션센터,대구광역시 북구 유통단지로 90 ,35.9071090212000000,128.6130836330000000,1
112,대구헤비,대구 남구 대명동 1896-5,35.8541529405228100,128.5833982457621400,70
754,대디제이1954,서울 성북구 동선동 1가 41번지 지하,37.5912075905346160,127.0171290541606700,11
267,대림미술관,서울 종로구 자하문로4길 21-0[통의동 35-1],37.5775039953813060,126.9733650593014400,2
290,대림창고,서울시 성동구 성수2가 322-32,37.5418406061840700,127.0564636309299500,3
476,대부바다향기테마파크,경기도 안산시 단원구 대부북동 1841-10,37.2864875500022000,126.5749106825698800,2
350,대전_Bar중구청,대전광역시 중구 대흥동 225-5,36.3267556122296600,127.4254249768075300,2
468,대전_구_충남도청,대전 중구 대흥동 499-3,36.3255933376016100,127.4207590728917400,3
1107,대전_카페허밍_꿈꾸는연어점,대전 동구 동대전로 284번길 105 1층,36.3488907141000000,127.4500811407000000,1
313,대전_칸티나,대전 서구 둔산동 1098-0[대덕대로185번길 63],36.3511212354136600,127.3741063250219600,5
894,대전_하얀책상,대전 중구 대흥로165번길 25,36.3259758926959700,127.4294396950781400,2
254,대전그린빈버찌라이브하우스,대전 중구 대흥동 452-65번지,36.3253070859587340,127.4242500058119000,7
748,대전무역전시관,대전광역시 유성구 엑스포로 87 대전무역전시관,36.3750370574102300,127.3890787192584800,1
678,대전엑스포과학공원_잔디광장,대전 유성구 도룡동 3-1,36.3773630758294200,127.3843161295335600,3
505,대전옐로우택시,대전 서구 둔산동 1064,36.3505417554486200,127.3760116822290500,2
703,대전우송예술회관,대전광역시 동구 자양동 155-3,36.3378111351193240,127.4459005854058800,2
122,대전인스카이2,대전광역시 중구 은행동 66-9,36.3281395962231800,127.4295309234595500,18
1034,대학로_CGV,서울특별시 종로구 대명길 28 ,37.5834566915464660,126.9998414979545500,1
451,대학로_KFC_앞_4차선_도로_위_거리_무대,서울 종로구 동숭동 1-27,37.5818789371107800,127.0022959826893900,1
657,대학로_마로니에공원,서울 종로구 동숭동 1-124,37.5804833816495400,127.0027125414136900,4
1207,더_그레잇_커미션,서울시 종로구 송월길 20-1,37.5691266303000000,126.9683237766000000,1
642,더_뮤지트_라이브클럽,경기도 고양시 덕양구 성사1동 699-11 지층,37.6553088616750950,126.8351850695771200,6
927,더_앨리,이태원동 34-8,37.5338220858695300,126.9894145586773400,1
373,더_팩토리_바,서울 마포구 서교동 402-13,37.5488385653360300,126.9199903330206800,2
733,더럭_음악실,제주특별자치도 제주시 애월읍 하가로 195,33.4535971760816300,126.3451682694639500,1
891,더블듀스,서울 서대문구 연세로7안길 52,37.5585455977481600,126.9340896376197900,2
627,더블에이_스튜디오,서울 마포구 서교동 364-10,37.5516835488504900,126.9221632845109800,5
842,더콤,정자동 84-9 1층,37.3695909636827750,127.1114620712083800,1
322,덕수궁_대한문_앞,서울 중구 태평로2가 365-1,37.5648584098200200,126.9763805842867400,2
981,도시여행자,대전 중구 보문로260번길 17,36.3261647069527700,127.4229902461349900,1
817,도조라운지,서울 용산구 이태원2동 671,37.5385178773288400,126.9871599913902100,1
300,도토리의_꿈,합천군 초계면 초계리 18-6,35.5581472567711150,128.2702964262465500,2
622,도파민트,부산광역시 부산진구 부전동 254-17,35.1547328259881400,129.0585529195363000,7
82,독각귀홀_전자쌀롱,서울 용산구 한강로3가 16-9,37.5328137802586140,126.9597269891992700,76
319,동대문_메가박스,서울 중구 을지로6가 21-0,37.5657979675296700,127.0074073903177200,1
1024,동대문_현대시티아울렛,서울특별시 중구 을지로6가 ,37.5677719920206100,127.0066330513798800,1
938,동래_스윔굿,부산시 동래구 명륜동 555-7,35.2068555125561700,129.0800793560367000,2
661,동아대학교_다우홀,부산 서구 구덕로 225 서구 부민동2가 1,35.1037400715198500,129.0194155452583700,1
1108,동인천역_북광장,인천 동구 송현동 70-10,37.4766139749000000,126.6325377730000000,2
895,동해문화예술회관_대공연장,강원도 동해시 천곡동 809,37.5263697965889240,129.1151279850065500,1
892,두후니네집,서울시 사근동 176-32,37.5607641465351560,127.0463364640831000,1
563,둘로스_소극장,서울 종로구 관수동 112,37.5692098021760760,126.9907135495707300,1
1158,드럼스테이션,마포구 서교동 355-1 지하,37.5540187153000000,126.9218303961000000,2
677,드림홀,서울 마포구 서교동 394-44 지하2층,37.5502989248054300,126.9158998798679000,25
524,디_엠_키친_앤_라운지,서울 마포구 서교동 368-22 1F,37.5516135163379160,126.9198366328498200,4
57,디디다_Cafe_DD.DA,서울시 마포구 상수동 310-14,37.5479389637156440,126.9221083341492100,53
697,디디피오픈마켓, 중구 을지로 281 DDP,37.5671697796204850,127.0112240286511700,1
210,디딤홀,서울 마포구 서교동 360-12[와우산로18길 34],37.5517207976127900,126.9240191960100100,108
843,디마이너스,서울특별시 마포구 노고산동 49-50번지 gs25 건물 b1층,37.5553636765749200,126.9348122217839900,1
940,디바_야누스,서울 서초구 서초대로54길 9-8,37.4937051505785560,127.0161704584409400,1
549,디앤지홀,서울특별시 송파구 오금로 195,37.5084329278889700,127.1160791750114200,3
607,디앤지홀,서울시 송파구 방이동 124-12 지층,37.5084509301640400,127.1160972992570800,1
624,딥커피,마포구 동교로 209,37.5587193112441300,126.9233466018180400,8
1137,따뜻한시도,부산 중구 대청로135번길 5-3 ,35.1033783820000000,129.0345745034000000,2
355,딸기다방,서울 마포구 서교동 335-5,37.5550464687760100,126.9283628116711000,2
1075,떨기나무,     서울특별시 강남구 논현로30길 21,37.4839132314644350,127.0436975030634700,2
964,뜰안에작은나무도서관,부천시 원미구 역곡1동 108-10 지하1층,37.4886274808972500,126.8127023171039100,1
510,라디오_스타,전북 전주시 완산구 중화산동 2가 778-1번지 B1 ,35.8177292254027300,127.1179806778969600,8
330,라디오가가,서울특별시 마포구 서교동 384-12 지하1층,37.5523012545007550,126.9138334352577400,7
784,라디오엠,서울특별시 종로구 삼청로2길 37-2,37.5799557479984900,126.9812795208344900,4
621,라디오키친,서울시 마포구 서교동 358-53번지 지하,37.5528366520209000,126.9218995323218700,34
818,라망데듀,서울 마포구 상수동 331-9 1층 (02-323-5879),37.5464548481296600,126.9232233701983100,1
870,라보데기타,서울 중구 퇴계로 32길 8,37.5606360524526860,126.9925481493494900,1
577,라부에노,서울시 마포구 상수동 141-1 br엘리텔빌딩 1츠,37.5479875701448340,126.9248151198889800,1
979,라이브_펍_연남동_덤앤_더머,서울특별시 마포구 양화로 177-1,37.5580282112611460,126.9246918553465400,1
854,라이브스타_오즈,부산시 부산진구 부전동 535-4 타임스미디어 빌딩 B1,35.1519629031257140,129.0588561791802500,3
420,라이브앤라우드,서울 마포구 동교동 200-30,37.5576014665619300,126.9224151718186700,256
808,라이브와이어,서울 마포구 월드컵북로6길 60,37.5592443366046400,126.9215849975645800,8
442,락앤락,서울특별시 종로구 대학로 86,37.5791975905535200,127.0032921885904400,8
482,락앤롤,서울 강남구 신사동 569-21 서강빌딩 ,37.5240129183605400,127.0272316562364200,4
407,락캠프_Rock_Camp,인천광역시 부평구 갈산동 381-3,37.5075886279946300,126.7230383857623800,27
1056,랏도의_밴드뮤직,서울 마포구 합정동 372-47 지하1층 랏도의 밴드뮤직 스테이션,37.5480194930167800,126.9135350898371800,8
893,레_필로소피,서울 성동구 성수 2가 1동 309-148 협성빌딩 1층,37.5410211238740250,127.0555030960699400,6
956,레드,서울 서대문구 창천동,37.5586862112918850,126.9341936377409300,1
850,레드뮤직,서울 관악구 난곡로 288 남진빌딩 2층,37.4796705275665900,126.9151605517034500,2
923,레드보틀,부산시 금정구 장전동 417-2,35.2327648249082800,129.0866013686251700,4
1094,레드빅_스페이스,마포구 서교동 372-9번지  B1,37.5521430285000000,126.9194331864000000,9
756,레드제플린,서울 종로구 혜화동 133-1,37.5848009705542900,127.0008468690138400,5
823,레드제플린LPBar,서울 관악구 신림동 1641-50,37.4808409813648900,126.9303907677192600,1
722,레인보우,서울특별시 서초구 서초4동 1308-11,37.5007710895570600,127.0250835357551000,1
55,레인보우_Rainbow,서울 서초구 서초동 1308-11,37.5007674836119800,127.0250925818109500,9
5,레진코믹스V홀,서울시 마포구 서교동 356-1,37.5544080358338100,126.9219657955274100,144
421,레코드_하트,서울시 마포구 서교동 342-16번지,37.5539953380716440,126.9246201681900600,2
1002,레필로소피,서울 성동구 성수이로 65 협성빌딩,37.5409742995439260,127.0554442225979700,1
1102,렛츠런파크,제주시 애월읍 평화로 2144 ,33.4087624988000000,126.3955531944000000,1
666,로드러너,서울 영등포구 신길7동 676번지 지층,37.5026827469426700,126.9210741977600300,1
48,로라이즈_LOWRISE,서울시 영등포구 문래동3가 58-77,37.5143756716812100,126.8951865512556300,27
1191,로렌스_서울,마포구 와우산로29길 66,37.5563067622000000,126.9266899883000000,3
973,로얄앵커,울산광역시 중구 문화의거리 9,35.5557798452880800,129.3214760340542600,2
333,록키마운틴태번,서울 용산구 이태원로 212,37.5345805054963300,126.9975345222869700,5
43,롤러코스터_Rollercoaster,서울 마포구 서교동 446-60 ,37.5555623983605000,126.9183261622260000,69
12,롤링홀_Rolling_Hall,서울 마포구 서교동 402-22[어울마당로 35],37.5484854520862900,126.9201342061802100,268
770,롯데백화점_영등포점_10층_롯데문화홀,서울 영등포구 영등포동 618-496,37.5154851671523900,126.9074826384578000,1
702,롯데카드_아트센터_아트홀,서울 마포구 서교동 490번지,37.5509353030795500,126.9137806878787700,15
744,롯데호텔_서울_크리스탈볼룸,서울특별시 중구 을지로 30 롯데호텔서울 2층 크리스탈볼룸,37.5653451695380300,126.9810069981414700,3
636,롯데호텔월드_크리스탈볼룸,서울특별시 송파구 올림픽로 240,37.5113107836422100,127.0981403954326200,3
492,롯데호텔월드_크리스탈볼룸,서울특별시 송파구 올림픽로 240,37.5113107836422100,127.0981403954326200,9
467,롸일락,서울 마포구 서교동 402-3,37.5484599386683650,126.9197132679157800,215
965,루카스초이스,서울특별시 마포구 서교동 478-14,37.5551087773273550,126.9138528373441200,3
824,루프탑바머스,서울시 마포구 와우산로 150,37.5543048672172800,126.9298562275160500,1
63,리디안_Lydian,서울 마포구 창전동 5-73,37.5544097797979000,126.9303461872950000,20
761,리치_몽브레,서울시 관악구 남부순환로 1861,37.4799994560623600,126.9568655510487000,1
741,리틀파운드,서울특별시 광진구 자양로 260 원덕빌딩 2층,37.5492384002936740,127.0902686263901800,3
1204,마리아_칼라스_홀,서울 강남구 영동대로 315 대경빌딩,37.5024960402000000,127.0660329624000000,1
839,마리아칼라스홀,서울특별시 강남구 대치동 983-10 SAMT빌딩 지하 1층,37.5024780479346700,127.0659831854889000,2
276,마리오_아울렛_3관,서울시 금천구 가산동 60-52호,37.4786661950649200,126.8863576944916100,2
807,마음은_콩밭,종로구 부암동 208-43,37.5946957050333700,126.9643860291951800,1
1083,마이스윗,서울 용산구 이태원로20길 4,37.5340565466980200,126.9919579358147200,1
1010,마이크임팩트_스퀘어종로,서울특별시 종로구 관철동 45-1,37.5697064702570000,126.9842794880941900,7
775,마이크임팩트스퀘어_13F,서울특별시 종로구 관철동 45-1 대왕빌딩 13층,37.5697064702570000,126.9842794880941900,2
1076,마이티플래닛,경기 성남시 분당구 황새울로 325 서현하우비,37.3855653241640200,127.1214269669927900,2
1121,마카로니펑키클럽,서울시 마포구 합정동 413-18번지 지하1층,37.5488537602000000,126.9159512955000000,4
85,마포아트센터,서울특별시 마포구 대흥동 30-3,37.5499847567416000,126.9455585362941000,60
910,마포아트센터_아트홀맥,서울 마포구 대흥로20길 28 마포아트센터,37.5499054584732700,126.9455359609774400,2
941,막사,마포구 연남동 227-9,37.5621307377523000,126.9265801532712900,1
1100,만남가게,서울특별시 마포구 염리동 169-12,37.5447057063000000,126.9473276263000000,1
773,매드,백석동 백석로 108번길 7-1,37.6488931999585360,126.7894563103416900,3
942,매직스트로베리사운드,서울시 마포구 와우산로 29길 14-10,37.5552234788763600,126.9291763285226200,1
520,맥파이,용산구 이태원동 691,37.5394441390176100,126.9874721242582300,1
316,메세나폴리스_야외분수광장,서울 마포구 합정동 416-33,37.5497530031993000,126.9136159518878800,5
508,메이트_뮤직,대전 유성구 궁동 490-11,36.3602477166342100,127.3467064946115800,1
712,멜로아,마포구 연남동 227-13  1층,37.5621703308662400,126.9264986222950700,17
285,명월관,서울 마포구 서교동 362-12,37.5514966040212300,126.9228165989432300,5
849,명필름아트센터,경기도 파주시 문발동 627,37.7235031366970500,126.6933847953611500,4
616,모던_K_서울캠퍼스_4층_SEED공연장,서울특별시 서초구 동작대로 24,37.4786616754684500,126.9821504887344700,2
1209,모던한옥카페_핑크마티니,용인시 처인구 동부로 823,37.1893062017000000,127.2770608281000000,1
958,모락,용산구 이태원동 224-3 301호,37.5390514836146100,126.9893097227783000,1
182,모모스테이지,서울 중구 을지로2가 181-0[을지로 66],37.5655410875226000,126.9850686434371700,8
184,몽마르뜨공원,서울특별시 서초구 반포 4동,37.4986558931066900,126.9954782533030500,1
602,몽키비즈니스,서울 종로구 통인동 112번지 B1,37.5804510020762800,126.9709318938193500,190
861,묘지猫地,창원시 의창구 용지로 239번길 34-1 카페 Lat25 지하,35.2370077394091300,128.6835283640521400,1
611,묘지1227,경상남도 창원시 용호동 29-14 지하 ,35.2370005928587400,128.6835238225421800,1
264,무대륙,서울시 마포구 합정동 357-7,37.5459759227695300,126.9184530774920600,95
546,무브홀_MUV_HALL,서울시 마포구 서교동 368-22 서문빌딩 B1,37.5516135163000000,126.9198366328000000,34
540,문래_정다방,서울 영등포구 문래동4가 7-1,37.5161339303745000,126.8906595357453600,1
1059,문래당,서울 영등포구 문래동2가 10-6 3층,37.5133453374227300,126.8956540041308900,1
206,문래동_사진공간_빛타래,문래동 3가 54-16,37.5146250961865000,126.8960435630773600,1
717,문래레코드,서울 영등포구 문래동 4가 8-6 지하,37.5164073142776600,126.8900980898387200,7
436,문래예술공장,서울시 영등포구 경인로88길 5-4,37.5132195130187800,126.9001264994011700,6
321,문턱없는밥집,서울특별시 마포구 서교동 481-2,37.5545722570354460,126.9146378854445900,1
680,문화공간_숨도,마포구 신수동 31-1,37.5490773526695300,126.9397878469348600,1
1141,문화공간_십분의일,서울 중구 수표로 42-9 2층,37.5653246687000000,126.9902250584000000,1
991,문화공간_울림,인천 남구 용현1.4동 195-23 67,37.4527976380690150,126.6574233296966000,1
674,문화서울역284_RTO,서울특별시 중구 봉래동2가 122-25 통일로 1번지,37.5557459941844300,126.9721501889751400,1
798,뮤지스땅스,서울특별시 마포구 아현동 600-2,37.5549992407835450,126.9575919338755900,1
764,뮤지스땅스,서울 아현동 600-2 지하 1층 뮤지스땅스,37.5549992407835450,126.9575919338755900,4
1061,뮤지컬하우스,서울특별시 중구 신당2동 353-8 호연재빌딩,37.5525774650940000,127.0084333552987200,1
298,뮤직트리,대구광역시 북구 산격동 1331-8,35.8936161601524300,128.6097533433365000,1
993,미드나잇_서울,서울 마포구 서교동 345-26 지하1층,37.5544341475945560,126.9233147761558300,2
1072,미드나잇서울,서교동 345-26번지,37.5544341475945560,126.9233147761558300,1
841,미술세계,서울특별시 종로구 인사동 15,37.5729467256181500,126.9865156357290900,1
1065,미스핏,서울특별시 마포구 서교동 400-1,37.5492560686950160,126.9191963862969900,1
729,믹스페이스,대전광역시 중구 대흥로175번길 25 (대흥동) 지하 2층,36.3262753656151100,127.4303634737348600,1
734,민트고래,대구광역시 남구 대명5동 37-1,35.8469224569569800,128.5901964712313000,1
177,밀리오레_야외광장,서울특별시 중구 을지로6가 18-185,37.5683242910827740,127.0083085968761600,1
1012,밀스하우스,서울시 마포구 월드컵로8길 63 (서교동 482-8),37.5536145041718300,126.9157694031852100,12
932,바_알레그리아,서울시 마포구 창전동 4-5 지하 1층,37.5545687968921500,126.9312819474522200,3
806,바라아트홀,서울특별시 강남구 논현로 161길 20,37.5236995332299600,127.0265120649045500,1
901,바람종_카페,부산광역시 기장군 일광면 칠암리 55 ,35.2975691912601700,129.2597686020133400,1
576,바린스타,전라북도 전주시 명륜 3길 10-2,35.8421219561092240,127.1275271976107300,1
801,바인스타,전라북도 전주시 덕진구 덕진동1가 1265-2,35.8421219608076000,127.1275227700541000,4
196,반월아트홀,경기도 포천시 군내면 하성북리 610 ,37.8957658602678900,127.2121826222933800,4
1019,반쥴,서울특별시 종로구 삼일대로17길 23,37.5690688038939200,126.9861858084778600,1
349,방송통신대학TV_OUN,서울시 종로구 대학로 86 ,37.5794174401974250,127.0025404879486600,1
629,백암아트_홀_8층_소극장,서울특별시 강남구 삼성동 170-5,37.5105402794243800,127.0659133700816900,1
537,백암아트홀,서울시 강남구 테헤란로 113길7,37.5104285322095600,127.0659539897377300,6
803,밴드마루지하기지,서울시 은평구 수색로200,37.5791732856567500,126.9009826650014800,2
904,버거펍,서울특별시 마포구 와우산로18길 30 1층 바비큐마스터 버거펍,37.5514865819519560,126.9240873341830600,4
963,버디식스,대전 서구 대덕대로185번길 22 6층,36.3503748475516300,127.3763584586927900,17
970,버텀라인,인천 중구 중앙동 4가 8-4,37.4715869933977640,126.6235774736461000,3
771,벙커1,서울 종로구 동숭동 199-17,37.5782416449315900,127.0047320881340800,1
679,벙커1,서울시 종로구 동숭동 199-17,37.5782416449315900,127.0047320881340800,2
879,베로니카이펙트,서울특별시 마포구 어울마당로2길 10,37.5461750446521660,126.9197700349588000,1
716,베이스먼트,서울시 동대문구 이문동 305-75,37.5955573521234300,127.0612369860822600,9
493,베짱이홀,서울 마포구 상수동 313-3 NJ빌딩 지하,37.5484683819087050,126.9215510223794400,3
751,벡스코,부산광역시 해운대구 우1동 1291,35.1664773467830400,129.1295968679862700,2
62,벤_제임스_Cafe_Ben_James,서울시 마포구 합정동 411-5,37.5483796238225000,126.9182164569940000,1
83,벨로주_VELOSO,서울 마포구 서교동 372-6 스튜디오 빌딩 지하,37.5524309259851600,126.9188172384328500,160
490,별나무_라이브홀,마포구 서교동 373-6 지하,37.5520882192890540,126.9183423035142500,1
597,별다방_미스타,서울 서초구 양재동 307-2,37.4736703952581750,127.0441346948537100,1
525,보노보노,서울시 영등포구 문래동1가 30번지 문래예술공장 2층 박스시어터,37.5132230728290300,126.9001378358531000,1
1116,복합문화공간_두잉,서울특별시 성동구 성수동2가 317-1 지층,37.5438529257000000,127.0574695803000000,1
587,복합문화공간_에무,서울특별시 종로구 신문로2가 1-181,37.5720820807143950,126.9690243557521400,13
920,복합문화공간_옴스,경상북도 구미시 송선로 465(도량동),36.1351103230798200,128.3189384784426700,3
1106,복합문화공간_작당,경상남도 창원시 성산구 마디미동로 3 대진상가 4층 ,35.2227438858000000,128.6868491090000000,1
698,부경대_가로수길,부산 남구 대연동 499-4,35.1344280303229650,129.1009511144241300,1
317,부경대학교_실내체육관,부산광역시 남구 대연3동 599-1,35.1335421185644800,129.1040736029219700,1
1052,부기우기,서울특별시 용산구 이태원동 278-8 2층,37.5392604924265500,126.9890562394276700,3
1113,부기우기,서울시 용산구 이태원2동 278-8 2층,37.5392713036000000,126.9890471859000000,3
584,부산_KBS홀,부산광역시 수영구 남천동 63,35.1449363814500940,129.1085763325445200,2
245,부산_OL_55,부산광역시 남구 대연동 60-4,35.1361022909539300,129.1021516934649000,4
481,부산_광안리_해변,부산 수영구 광안동,35.1582894962693050,129.1095179301878500,5
323,부산_다누림홀,부산 사상구 가야대로 196번길 51,35.1474458242614800,128.9948732757517000,8
111,부산_무몽크,부산 금정구 장전3동 416-1,35.2325870769390400,129.0870844621903200,44
665,부산_민락인디트레이닝센터,부산광역시 수영구 민락동 345-1 도시철도 민락역사,35.1664962639576760,129.1227715097194800,2
241,부산_바이널언더그라운드,부산광역시 남구 수영로322번길 32,35.1363864315395000,129.1019273194921200,32
474,부산_사상인디스테이션,부산광역시 사상구 사상로 190,35.1622348541395200,128.9853191097856200,15
865,부산_송상현광장,부산진구 중앙대로 818(전포동) ,35.1640311420385900,129.0650028824517800,2
543,부산_시민회관_대극장,부산광역시 동구 범일2동 830-31 ,35.1388397732547900,129.0651254076128700,1
403,부산_업스테어,부산광역시 금정구 장전동 425-13 ,35.2295049630921750,129.0837608062125000,2
337,부산_영화의전당,부산광역시 해운대구 우동 1467,35.1711669784973100,129.1271933297325600,7
340,부산_오즈홀_Oz_hall,부산 진구 부전동 535-4 타임스미디어빌딩 B1 라이브스타오즈,35.1519629031257140,129.0588561791802500,34
580,부산_올모스트_페이머스,부산시 남구 대연3동 55-2 지하,35.1373455162610400,129.1012893829906000,2
386,부산_재즈클럽_몽크,부산 남구 대연3동 58-34,35.1362815760474200,129.1019983328103000,5
263,부산_중앙동커피산책,부산 중구 중앙동4가 31-8[중앙대로81번길 3-1],35.1048675567853100,129.0356336062744700,1
541,부산_현대카드_파이낸스샵,부산 부산진구 부전동 193-2 쥬디스 태화 본관 1층,35.1548320890548400,129.0594990669642600,1
231,부산다즐_Dazzle,부산 금정구 장전3동 416-45,35.2318507074800600,129.0869486935813500,3
628,부산대_썸데이,부산광역시 금정구 금정로 90,35.2324979867412000,129.0870250676552200,2
234,부산대학교,부산 금정구 부산대학로63번길 2-0[장전동 40],35.2320844702857200,129.0838294092154400,7
343,부산롯데_백화점_문화홀,부산광역시 중구 중앙동7가 20-1,35.0979963665873000,129.0361032193491000,1
155,부산리얼라이즈,부산 남구 대연동 54-29[용소로7번길 37],35.1376265133422400,129.1021820860388000,76
99,부산문화회관,부산광역시 남구 대연동 848-4,35.1273473083822400,129.0937835415699300,6
227,부산베이스먼트_Basement,부산광역시 금정구 금강로 274,35.2324913042025200,129.0855312044252000,13
705,부산센텀시티_소향씨어터_롯데아트홀,부산 해운대구 우동 1465번지,35.1731413306388000,129.1275976687256000,1
229,부산소울트레인,부산 금정구 장전3동 389-51번지,35.2330011718950100,129.0862735371287600,6
324,부산예술회관,부산광역시 남구 대연동 603-7,35.1307201713353760,129.1025925854092700,1
233,부산온천천,부산 금정구 장전3동 643-90,35.2291142160232060,129.0890751432595500,2
180,부산인터플레이클럽,부산 금정구 장전3동 417-3,35.2326241210848600,129.0866214318766000,37
232,부산카페헤세이티_Cafe_Haecceity,부산시 금정구 장전1동 389-20번지,35.2331213714946300,129.0857950549750500,2
151,부산코스믹콜라보,부전2동 254-17,35.1547330909887300,129.0585518974900000,14
230,부산크로스로드_Crossroad,부산 금정구 장전3동 389-51,35.2330195234767700,129.0862669164229400,2
1153,부산항_국제_여객터미널_광장,부산광역시 동구 충장대로 206,35.1177462516000000,129.0491459122000000,1
1114,부산항_컨벤션센터,부산광역시 동구 충장대로 206,35.1177462516000000,129.0491459122000000,1
721,부에나비스타,서울특별시 마포구 합정동 412-8,37.5484730813279000,126.9178619106717600,16
1043,부천_CGV,경기도 부천시 원미구 중1동 1164 ,37.5042861488579100,126.7621817283923900,3
1165,부천_만화_영상_진흥원, 경기도 부천시 길주로 1,37.5085687356000000,126.7437143758000000,3
1069,부천_유플렉스,경기 부천시 중동 1165-1,37.5044707430341260,126.7607877987974400,2
1026,부천마루광장,경기 부천시 소사구 부천로 1,37.4840385508136900,126.7826519516226400,1
286,북촌아트홀,서울시 종로구 원서동 157-1,37.5789662855780500,126.9889826881816200,5
645,북카페_이데,대전 중구 대흥동 185-11,36.3257405411041500,127.4267121087207800,2
846,블랙버드,인천 남구 용현동 627-326 B1,37.4495025904090000,126.6342526112301700,1
470,블러섬랜드,서울시 마포구 서교동 403-1,37.5501113543548800,126.9208489958000400,6
1154,블러섬랜드_상수,서울특별시 마포구 상수동 271 우성빌딩 B1,37.5452602919000000,126.9263160700000000,1
1170,블러섬랜드상수,서울시 마포구 상수동 271번지 B1 블러섬랜드,37.5452602919000000,126.9263160700000000,1
1025,블루나이트,서울특별시 마포구 어울마당로 37 2층 ,37.5486440980739100,126.9202381469124500,6
1073,블루나이트,서울 마포구 어울마당로 37 2층,37.5486440980739100,126.9202381469124500,1
908,블루라이트라이브홀,서울 마포구 어울마당로 94-8,37.5531395992284440,126.9222206185360700,1
379,블루버드Blue_Bird,서울시 서대문구 연희동 137-2,37.5675683193386260,126.9311667539644200,4
331,블루베리카페,서울시 용산구 청파로47길 100,37.5457287775460240,126.9636092361888000,1
951,블루스맨,서울시 종로구 신영동 196-4,37.6021908735892150,126.9609806030232200,4
851,블루스앨리,전북 전주시 완산구 효자동3가 1538-2번지,35.8167454075147000,127.1099988640043700,1
826,블루스하우스,서울 마포구 서교동 403-14 지하1층,37.5495706043267600,126.9206536047913300,24
759,비닐,마포구 서교동 411-1,37.5500766592657900,126.9229118459428300,1
832,비박스,서울 마포구 합정동 368-37,37.5456569034211540,126.9157919364748500,2
557,비스트로6942,서울 서대문구 대현동 56-32,37.5581439715852300,126.9450817825039300,1
1183,비트_360,서울특별시 강남구 압구정로 417,37.5275582199000000,127.0428857786000000,2
507,비행술,서울 마포구 창전동 5-81,37.5543914113211400,126.9299376300537900,1
497,빅스톤,전북 군산시 수송동 831,35.9667286641569400,126.7167457909833000,1
835,빈브라더스_합정점,서울 마포구 합정동 368-3,37.5457212468435500,126.9150540698848700,2
592,빛과소리아트홀,서울시 서초구 서초동 1687-2번지 B3,37.4961373821396300,127.0194051793956500,6
425,빠드두밈,서울시 강남구 신사동 644-20,37.5262972300586500,127.0359126393323400,3
426,빠드두밈,서울시 강남구 신사동 644-20,37.5262972300586500,127.0359126393323400,1
853,빡스,마포구 합정동 368-37,37.5456569034211540,126.9157919364748500,2
1054,사단법인_누림,서울시 강남구 논현동 176-8 B1,37.5093940149935500,127.0313523707907300,1
538,사우스타운,부산 남구 대연동 60-13,35.1357255534773360,129.1013749921909300,1
643,사운드마인드,서울시 관악구 낙성대로 14,37.4772826811138500,126.9587393095448500,66
15,사운드홀릭시티_Soundholicity,서울시 마포구 서교동 344-6,37.5534257082777700,126.9243660296171200,241
9,사피엔스7_Sapiens7,서울특별시 마포구 서교동 369-44,37.5528400038831900,126.9215192796781200,66
489,살롱_노마드,서울 마포구 노고산동 56-76,37.5548507576611360,126.9327574571129300,540
44,살롱_바다비_Salon_Badabie,서울시 마포구 동교동 182-5,37.5560750234190700,126.9308686099402000,394
173,삼락생태공원,부산광역시 사상구 삼락동,35.1769645860359200,128.9777166186261000,9
186,삼성딜라이트,서울특별시 서초구 서초2동 1320-10,37.4966927556048500,127.0268568834861000,8
444,삼성생명_사람사랑광장,서울시 중구 세종대로 55,37.5616217499894800,126.9749782176851900,1
171,삼성역KTandG상상아트홀,서울특별시 강남구 대치동 1002,37.5066108262508000,127.0653680724065600,3
1157,상관편백숲,전북 완주군 상관면 죽림리 ,35.7434495336000000,127.2190351602000000,1
512,상상문화발전소_1839,순천시 석현동 131-2,34.9702741215166600,127.4838069621490700,1
689,상암_DMC_문화_공원,서울특별시 마포구 상암동,37.5783677567098450,126.8946893672271000,2
262,상암누리꿈스퀘어,서울 마포구 상암동 224-3,37.5792351938762400,126.8901743391451800,1
914,새누리당_앞,서울특별시 영등포구 국회대로70길 18,37.5288906500174800,126.9203496917806400,5
948,새롬문화센타,마포구 노고산동 31-34 2층,37.5542444859207800,126.9378733546086100,11
1101,생각의숲_생각의술,제주시 동광로 5,33.5012741420000000,126.5296981208000000,1
1208,생기_스튜디오,서울특별시 마포구 서교동 337-27,37.5538644181000000,126.9285845989000000,1
164,서강대학교_곤자가잔디_스테이지,서울 마포구 신수동 1-1[백범로 35],37.5512325255801200,126.9392757464367800,1
516,서강대학교_청년광장,서울특별시 마포구 백범로 35 청년광장,37.5514539806576000,126.9430044131985600,1
370,서교예술실험센터,서울특별시 마포구 서교동 369-8,37.5523963084750500,126.9209099071815100,4
433,서귀포_이중섭거리,제주특별자치도 서귀포시 서귀동 512-1[이중섭로 29],33.2455459393411300,126.5644003719275000,2
214,서서울호수공원,서울 양천구 신월동 산68-3,37.5327931643009050,126.8315021060583400,2
999,서울_마리나,서울특별시 영등포구 여의도동 81 ,37.5340466606735800,126.9133566216327400,2
864,서울광장,서울특별시 중구 세종대로 110,37.5663176911162000,126.9778283816222900,2
152,서울광장,서울특별시 중구 세종대로 110 서울특별시청,37.5663176911162000,126.9778283816222900,10
383,서울동물원,경기도 과천시 막계동 159-1,37.4359635128995800,127.0142264547980600,1
521,서울마리나_클럽and요트,서울특별시 영등포구 여의서로 160 ,37.5348166049837500,126.9115861877951400,3
315,서울살롱,용산구 이태원동 305-4,37.5388721699066540,126.9883467260024200,1
912,서울숲,서울특별시 성동구 왕십리로11길 9,37.5485766286177600,127.0432282535360600,1
613,서울시립대학교_대강당,서울 동대문구 전농동,37.5793286114346600,127.0539782855539800,1
410,서울시민청_바스락홀,서울 중구 태평로1가 31-0[세종대로 110],37.5665850785253400,126.9782046154050700,5
667,서울시민청_활짝라운지,서울 중구 태평로1가 31,37.5665880598597500,126.9782040929831500,2
1038,서울시청광장,서울특별시 중구 태평로1가 31 ,37.5665844558762500,126.9782040940332300,1
685,선녀바위_해수욕장,인천시 중구 을왕동 678-78,37.4413671129348800,126.3785320939670700,1
499,선유도공원,서울시 영등포구 선유로 343,37.5423196688520160,126.9018732864470800,1
571,성남아트센터_오페라하우스,경기도 성남시 분당구 야탑동 757,37.4026234647114200,127.1315380420062000,2
1118,성북마을극장,서울 성북구 동소문로20다길 10 4층,37.5916472423000000,127.0173510821000000,1
495,성수_아트홀,서울 성동구 성수동1가 656-323,37.5454180978198900,127.0469742287619200,5
1167,성신여대_미아운정그린캠퍼스_대강당,서울특별시 강북구 도봉로 76가길 55,37.6322042691000000,127.0273481235000000,1
589,세븐_펙토리,대전 유성구 봉명동 666-4 ,36.3583463739533400,127.3522064195496300,1
986,세븐랩스,대전 서구 탄방동 737번지 5층,36.3469935171048350,127.3898882677950700,2
605,세실극장,서울 중구 정동 3-7,37.5668326465998500,126.9757228842183100,1
874,세인트콕스,서울시 마포구 서교동 367-5 상상마당 6층,37.5510016433744500,126.9210323275657800,1
833,세종문화회관_중앙계단_앞_무대,서울특별시 종로구 세종로 81-3,37.5722350586476800,126.9759339443427600,1
1062,소격동_한복남,서울시 종로구 소격동 109,37.5803054268837000,126.9818771872214000,1
885,소극장_락왕,대구광역시 중구 명덕로 111번지 현대 자동차 지하 ,35.8568438628343600,128.5824333610815700,1
239,소극장_예,서울시 마포구 서교동 372-9,37.5521430147049460,126.9194344768659200,1
614,소모스,서대문구 창천동 62-22  3층,37.5567977852338600,126.9343084738218200,6
588,소셜마켓,화전동 33-5 Daegu,35.8733417927647600,128.5947146802954300,1
672,소셜코드,서울특별시 강남구 신사동 650-15 B1 ,37.5234483495058560,127.0359873261028300,1
922,소소한즐거움,서울특별시 마포구 합정동 367-9,37.5462541867109900,126.9144288251128000,11
484,소요산_야외음악당,경기도 동두천시 상봉암동,37.9471612948495400,127.0664653299326500,3
287,소통홀,서울시 마포구 노고산동 33-22,37.5544792836686300,126.9384989570162800,2
968,손탁본점_고독의_학교,서울 마포구 서교동 446-36 1층,37.5564458365792800,126.9189124768922600,1
790,손탁커피_작은무대점,서울특별시 마포구 동교로 30,37.5521653595503300,126.9057805312434400,5
745,솜리문화예술회관_대공연장,전라북도 익산시 선화1로 106 솜리문화회관,35.9390987157422760,126.9684505537209300,1
181,송정해수욕장_선셋덕장,부산광역시 해운대구 송정동 712-2 ,35.1792711900605200,129.1992024490802200,4
446,쇼앤톡,서울시 광진구 군자동 476-10,37.5558770147504200,127.0777866882352200,3
749,수원실내체육관,경기도 수원시 장안구 경수대로 893 수원종합운동장(주경기장),37.2979893109526500,127.0113327856020400,1
172,쉐라톤워커힐호텔_리버파크수영장,서울 광진구 광장동 21-0,37.5556884141191900,127.1113218519781200,1
1134,쉐어원라운지,서울특별시 강남구 테헤란로25길 54,37.5041672464000000,127.0347113952000000,1
1081,쉬바펍,서울 서대문구 연세로 42-24,37.5592471195900700,126.9384396238141200,2
776,스노우콘서트,경기 부천시 원미구 중동 1243 ,37.5042133844134540,126.7672667430982900,1
1145,스미다팔월,서울 마포구 월드컵로8길 72,37.5534995018000000,126.9162267410000000,1
1046,스카이_스윙_댄스바,서울 마포구 동교동 204-5,37.5591324806097760,126.9213859199140900,1
1195,스카이랩1984,대구 남구 양지로 79,35.8513182367000000,128.5780332460000000,1
858,스컹크,서울시 영등포구 문래동2가 14-25 지하,37.5142705714262940,126.8945306538503800,18
868,스컹크헬,서울 영등포구 문래동2가 14-25,37.5142705714262950,126.8945306538503800,2
1128,스텀프,서울시 마포구 서교동 358-121 지하,37.5528516100000000,126.9227233900000000,1
1020,스테이라운지,서울특별시 마포구 서교동 372-5 다내리빌딩 지하,37.5525175367545300,126.9189846344567600,2
1030,스테이지온더문,부산광역시 금정구 장전동 418-33,35.2320181453621300,129.0857958604826200,3
338,스테이지팩토리_stagefactory,서울 중구 장충동2가 190-10,37.5593181782147450,127.0037670663072000,12
886,스토아_어바나,광주광역시 동구 동명동 154-54,35.1498232272343100,126.9241057035820900,1
1003,스튜디오_로그,서울시 서대문구 연희동 107-4 지하 1층,37.5717765967453800,126.9292014077804300,1
739,스튜디오_엘뮤,서울특별시 강남구 도산대로25길 45,37.5224274888480950,127.0257378503151100,1
1071,스튜디오제이,강남구 청담동 83-15,37.5263477475861700,127.0415592093773200,1
50,스트레인지프룻_Strange_Fruit,서울특별시 마포구 서교동 330-14,37.5562096437661000,126.9269175799060000,139
1136,스트릿피스트서울,서울시 광진구 자양동 17-1 커먼그라운드,37.5411527039000000,127.0659493615000000,7
820,스티키_핑거스,울산 남구 달동 1264-5번지 2층,35.5371611624256540,129.3331933363867600,1
515,스틸페이스루프탑3639,서울 마포구 서교동 363-9,37.5509157974718450,126.9220101765164700,18
38,스팟_SPOT,서울 마포구 서교동 358-34,37.5525817298173300,126.9233664685636300,77
1197,스페이스_36.5,서울특별시 영등포구 당산동3가 382 지하 우측 ,37.5249323032000000,126.8957328948000000,1
609,스페이스_내안,서울시 양천구 목동로 173 지하,37.5239997516529650,126.8646336551036300,5
332,스페이스_문,서울 영등포구 문래동3가 54-41,37.5137353505935100,126.8965402458549600,195
763,스페이스_바움,강남구 논현1동 17,37.5153322602170600,127.0202245602010000,2
1173,스페이스_티움,서울 마포구 양화로18안길 26-5,37.5568614914000000,126.9262322159000000,1
953,스페이스1326,마산합포구 창동 65-2,35.2063618760988900,128.5742854581013700,1
947,스푼하우스,서울시 마포구 당인동 15-14,37.5460460127672900,126.9208248162080800,10
608,슬리퍼알투,서울특별시 마포구 서교동 330-11 지하1층,37.5560439457466200,126.9271338887749900,1
937,시간공장,관악구 신림동 1587-29,37.4820576391413300,126.9278796504155500,6
713,시나몬_라이브_홀,부산시 사상구 모라동 651-33,35.1913207865003100,128.9870981015208000,3
475,신당창작아케이드,서울특별시 중구 마장로 87,37.5684961286972000,127.0193561694714000,1
445,신도림_아트스페이스_고리,서울 구로구 구로동 3-25,37.5069757886247360,126.8903179350605500,1
847,신도시,서울시 중구 수표동 11-2 5층,37.5678114587293100,126.9907363615862700,3
814,신사장,서울시 서초구 잠원동 15-8,37.5155057735908950,127.0169126579832700,1
671,신수동_공동작업실,서울시 마포구 신수동 81-61 지하 1층,37.5516240957427300,126.9373277987668700,1
1162,신촌_갤러리카페900_건물_2층,서울 서대문구 신촌역로 22-8,37.5588459342000000,126.9433564272000000,1
358,신촌_락ROCK,서울 서대문구 창천동 72-29,37.5567288961020860,126.9333453657760900,2
318,신촌_메가박스,서울 서대문구 신촌동 74-12,37.5597968991066800,126.9419170119220600,1
201,신촌_밀리오레_야외광장,서울특별시 서대문구 신촌동 74-12 ,37.5597968991066800,126.9419170119220600,1
199,신촌_아트레온,서울특별시 서대문구 창천동 20-25 ,37.5565632846882660,126.9402310295481300,6
720,신촌_연세로_일대,서울 서대문구 연세로,37.5575884731824400,126.9369017868793700,3
655,신촌명물쉼터,서울 서대문구 연세로 20,37.5575453557273140,126.9371462845076500,4
532,신촌블루스,서울특별시 서대문구 창천동 5-50 상우빌딩 지하 1층,37.5583643921360850,126.9389202237145000,1
637,신촌음악당,서울시 서대문구 대현동 34-40,37.5595814283028300,126.9439444043204900,13
934,심포니하우스,마포구 서교동 247-58 ,37.5582939296845600,126.9127988820866200,1
1063,싸롱드비,서울 강북구 4.19로 6 B1 (419 사거리),37.6482333738460700,127.0135659523039000,9
430,썬더홀스,서울특별시 용산구 이태원동 559,37.5372456550152200,126.9870696928573500,27
429,썬샤인바,서울시 마포구 상수동 317-9,37.5480533901183200,126.9207018406810600,1
49,쏘울언더그라운드_Soul_Underground,서울시 마포구 동교동 166-12,37.5568676926610000,126.9246172167920000,6
479,쓰리썸즈,서울 마포구 와우산로 84,37.5518647294646700,126.9236659659982300,16
221,씨어터_카페,서울특별시 종로구 동숭동 1-67,37.5820879568160460,127.0031790443589700,2
615,씨에스타,서울특별시 마포구 연남동 229-62,37.5627851810342200,126.9242343295891400,1
828,씽크투두,영등포구 문래동 54-32,37.5143336638019800,126.8965937133011400,1
1040,아라리오_뮤지엄_인스페이스_공간소극장,서울특별시 종로구 율곡로 83 ,37.5777618425648100,126.9884166471218200,1
542,아르떼홀,서울특별시 마포구 합정동 379-10 이토마토빌딩 지하1층,37.5476137166021150,126.9106748363291100,3
530,아마도_예술_공간,서울 용산구 한남동 683-31,37.5378085729218300,127.0018329764683500,1
190,아메노히커피점,서울 마포구 동교동 184-12[와우산로 168] 101호,37.5557148229219500,126.9310285100761700,30
966,아워커뮨,서울특별시 용산구 이태원2동 225-142 ,37.5396138227853300,126.9906674355698200,3
880,아이니드팩토리,서울 성동구 성수일로4길 4 ,37.5428510757592800,127.0493669632290900,1
1181,아이다호,서울시 마포구 망원동 338-79 2층,37.5527859000000000,126.9066036225000000,1
591,아이해브어드림,서울시 강남구 역삼동 821 이즈타워 B3,37.4986116480678600,127.0278964310290600,21
766,아인스월드,경기도 부천시 원미구 길주로 1(상동),37.5090557863996100,126.7456173649446300,2
1023,아지트,서울시 마포구 동교동 201-33 ,37.5565087518665100,126.9213479333322100,1
1166,아키_커피,서대문구 연희동 342-51,37.5622560968000000,126.9312703601000000,2
179,아트라운지_멋진하늘낙원상가_4층,서울특별시 종로구 낙원동 284-6 ,37.5725763529537800,126.9878019684756800,1
455,아트스페이스_레드제플린,전라북도 전주시 완산구 고사동 427-7,35.8186325356179650,127.1426893942072800,2
450,아트씨_컴퍼니,서울시 강남구 신사동 534-2 ,37.5214818810775400,127.0223358941673600,3
422,아트팩토리_청춘,대구 중구 달구벌대로 2204-0[대봉동 20-51],35.8625903437453460,128.6042065550424500,10
534,아트홀_봄,서울특별시 동작구 대방동 345-1 서울여성플라자 1층,37.5115777603301100,126.9271409437610600,1
700,아틀리에_이노,서울특별시 동작구 남부순환로 2057 B2,37.4768840634250200,126.9773573889659800,1
73,악스_코리아,서울특별시 광진구 광장동 319-33,37.5457372634767200,127.1080528395677900,29
610,안뜰에_봄,부산시 금정구 장전동 383-12 1층,35.2350376108242400,129.0873273842332200,1
625,안산베이스먼트,경기 안산시 단원구 고잔동 539-17 지하,37.3183591430459600,126.8390599641421600,1
197,안양아트센터,경기도 안양시 만안구 안양8동 550,37.3845137401473550,126.9316181493247200,3
791,알과핵_소극장,서울특별시 종로구 동숭동 1-140 ,37.5799319465976250,127.0036997161773600,1
821,알로프트_서울_강남,서울시 강남구 영동대로 736,37.5237434525829560,127.0556622446198000,2
1178,알록_에피소드,서울 용산구 백범로87길 26,37.5385720441000000,126.9685222688000000,1
957,애비로드,성북구 인촌로26길 42-4 지층,37.5844224128782100,127.0297444248767500,15
281,앤트리사이트,서울 마포구 합정동 357-6[토정로5길 10],37.5458281362948940,126.9183867696925500,2
1169,앨리벙커,서울 용산구 신흥로3길 7,37.5411883810000000,126.9866164048000000,1
906,앰프_라이브_클럽,서울시 마포구 서교동 343-11 B1,37.5534691991041140,126.9247462380147800,2
952,양산문화예술회관,경상남도 양산시 중앙로 39-1,35.3334507501632160,129.0367590312259000,1
1011,어글리정션,서울 마포구 신수동 255-2  B1,37.5454359031550100,126.9370749789498700,1
992,어반305,부곡동 225-29,35.2350625070564100,129.0913127887405700,1
872,어반노마드,서울시 성북구 동소문동4가 124-1,37.5915614290423600,127.0118345929441000,2
793,어쿠스틱_홈즈,제주특별자치도 제주시 애월읍 유수암리 1402-1,33.4236951077483650,126.4019525345506600,2
1016,어쿠스틱메이트,서울특별시 마포구 서교동 334-11 2층,37.5546636910263060,126.9272529317261600,2
435,어쿠스틱타임,서울 동작구 노량진동 240-23,37.5117944431779700,126.9396975949325100,1
415,어쿠스틱홀릭,서울특별시 마포구 서교동 328-18,37.5552844308942700,126.9285255469944000,16
889,언더스테이지,서울특별시 용산구 이태원로 246,37.5366372845005600,127.0007014985402800,2
931,언뜻가게,마포구 아현동 653-9,37.5555187582192860,126.9497871978578900,5
567,언플러그드하우스,울산광역시 남구 무거 623-2,35.5398802110476600,129.2576010055308300,1
1051,에디토리얼카페_비플러스,서울시 마포구 서교동 395-204,37.5514503914148300,126.9184561666779000,2
719,에리두_Cafe_n_Beds,서귀포시 대포복개로 37,33.2417516700510500,126.4346152613885700,22
809,에릭스펍,성남시 분당구 구미동 35-9,37.3485617932840840,127.1106048262896000,4
1125,에릭스펍,경기도 성남시 분당구 구미동 35-9,37.3485617933000000,127.1106048263000000,1
161,에반스라운지,서울 마포구 서교동 401-3[독막로9길 9] 성원 빌딩 (1층 필라멘트) 지하1층 에반스라운지,37.5488238329674100,126.9195331729804500,233
261,에스꼴라_알레그리아,서울 마포구 창전동 4-5,37.5545689150864060,126.9312830925999400,38
866,에이브릭,서울특별시 마포구 서교동 481-1 지하1층,37.5544564590005050,126.9138581151148900,4
374,에코브릿지_커피,서울시 마포구 서교동 476-25,37.5546425122908000,126.9121933061936700,8
1177,엔터식스_왕십리,서울 성동구 왕십리광장로 17,37.5614409414000000,127.0383960049000000,3
362,엘루이_ELLUI,서울 강남구 청담동 129-0[도산대로 551],37.5259949472033800,127.0542347004301900,1
372,엘리시안_강촌,강원도 춘천시 남산면 백양리 29-1,37.8270122283040560,127.5795440986370600,1
795,엘리엇스체어,제주특별자치도 제주시 이도2동 1979-22,33.4899283517505900,126.5402313520261000,2
488,엘엔에스_아트홀,서울특별시 서초구 서초동 1687-2 중앙서초프라자 B3층,37.4961049481278600,127.0193916009539200,1
25,엠넷펍_Mnet_PUB,서울 영등포구 여의도동 23-0[국제금융로 10],37.5249802119751900,126.9252970408867000,8
962,엠아카데미,서울특별시 강남구 논현로 816 베스콘빌딩,37.5213023961174900,127.0285293089290500,1
926,엠팟,서울시 강남구 학동로 171(논현동) 삼익악기 빌딩 3층,37.5140472660822200,127.0295490687203000,10
526,엠펍,서울특별시 영등포구 여의도동 23 IFC몰 지하3층 MPub,37.5249799328836600,126.9252997748768000,3
617,엠펍,서울특별시 영등포구 국제금융로 10 지하3층,37.5251778862953800,126.9248787428569600,2
1205,엠플라운지,서울 강남구 논현로 404,37.4962152898000000,127.0394255750000000,2
1211,엠플라운지,서울특별시 강남구 논현로 404,37.4962152898000000,127.0394255750000000,1
1122,엠피나인,구로구 구로5동 520-1,37.4997122654000000,126.8850109344000000,1
220,여의도_물빛무대,서울 영등포구 여의도동 84-1,37.5328789373405560,126.9291311807447200,2
684,여의도_엠펍,서울시 영등포구 여의도동23 지하 3층,37.5249799328836600,126.9252997748768000,4
883,여의도_한강공원,서울특별시 영등포구 여의동로 330 한강사업본부 여의도안내센터,37.5263472047369300,126.9335975814086200,3
212,역곡역_남부광장_야외무대,경기 부천시 소사구 괴안동 113-8,37.4846933732061060,126.8119015791044000,1
185,연기문화회관,충청남도 연기군 조치원읍 침산리 226-1 ,36.5994400729194600,127.2874401539342600,3
961,연미블루스,서대문구 창천동 52-119 지하,37.5581929538782260,126.9350768559707600,3
167,연세대학교_백주년기념관,서울특별시 서대문구 신촌동 134,37.5647006368662100,126.9394954435981500,3
498,연세대학교_원주캠퍼스,강원도 원주시 연세대길 1,37.2748353266674300,127.9043190017016800,1
504,영남대학교,경상북도 경산시 대학로 280,35.8304925979906300,128.7521818125983600,3
297,영등포_타임스퀘어,서울 영등포구 영등포동4가 441-13,37.5180171807404600,126.9053504857090000,6
347,영등포_타임스퀘어_M_pub,서울 영등포구 영등포동4가 441-13,37.5180171807404600,126.9053504857090000,1
348,영등포아트홀,서울 영등포구 당산동3가 3-0[국회대로 596],37.5261866516837300,126.9001406291211000,3
1068,영일대_해수욕장,경상북도 포항시 북구 두호동 685-1,36.0572919738352000,129.3780674913919600,1
1196,예그린_씨어터,서울 종로구 동숭길 130-5,37.5838891284000000,127.0030749575000000,2
1199,예술반점_길림성,인천 서구 장고개로 245,37.4870588201000000,126.6797316102000000,1
398,예술의전당,서울특별시 서초구 서초동 700,37.4810857412769140,127.0152471132369100,1
919,예울마루_대극장,전라남도 여수시 시전동 1003,34.7498260036286550,127.6649508376572900,1
945,예주문화예술회관,경상북도 영덕군 영해면 성내리 산43,36.5281155370538600,129.4056109178839000,1
1117,옛_정동교회,대전 동구 중앙로203번길 88-1,36.3342463002000000,127.4291019361000000,1
1093,오감통,전남 강진군 강진읍 오감길 2,34.6392150171000000,126.7740402543000000,2
1014,오디오가이,서울 종로구 통의동 35-22,37.5780730210108160,126.9736724419851400,1
39,오뙤르_AUTEUR,서울시 마포구 서교동 367-36,37.5514017951097050,126.9211948661702500,218
632,오르다살롱,마포구 창전동 6-141  서울특별시 121-880,37.5530593915171240,126.9264079816138900,3
1210,오방가르드,부산 남구 용소로 7번길 15-1  B1,35.1372206006000000,129.1010097238000000,4
409,오백,서울 마포구 서교동 408-17,37.5493801138951000,126.9213839143170600,1
800,오브젝트_리사이클,서울시 마포구 창전동 436-11 1층,37.5531128178672300,126.9253984544274100,1
796,오브젝트_카페,서울시 마포구 서교동 402-10 삼광빌딩 3층,37.5488420509172160,126.9198441275465400,3
855,오브젝트_카페,서울시 마포구 창전동 436-11 1층,37.5531128178672300,126.9253984544274100,1
142,오산문화예술회관,경기 오산시 오산동 6-9,37.1599479236965100,127.0763153373733000,2
539,오요리,서울 마포구 서교동 409-10,37.5493839278264000,126.9217492317735200,1
949,오월열한시,부산 동래구 복천동 67-2,35.2058265575873300,129.0908436923323800,1
384,오컬트별,서울 서대문구 창천동 57-33,37.5572093861654400,126.9353911336286000,1
1022,오퍼스,인천 연수구 인권로 26,37.4191060860789100,126.6533970701307000,1
344,오피스커피officecoffee,서울시 마포구 창전동 390-30,37.5474236178289700,126.9276098242826000,4
731,올댓재즈,서울특별시 용산구 이태원동 112-4,37.5351487094885000,126.9945872543408000,3
905,올드블루,대구 중구 공평로 34,35.8670377242673400,128.6001105636617000,5
169,올레스퀘어,서울 종로구 세종로 100-0[세종대로 178],37.5721423238673250,126.9779538483237900,7
205,올림푸스홀,서울특별시 강남구 삼성동 114-9,37.5113327823465140,127.0484378946082000,5
69,올림픽공원,서울특별시 송파구 방이동 88-2,37.5170182820401300,127.1260511371897000,7
1104,올림픽공원_88호수_수변무대,서울 송파구 방이동,37.5110126424000000,127.1239236896000000,1
686,올림픽공원_K-아트홀_태권도홀,서울특별시 송파구 방이동 88-2,37.5170182820401300,127.1260511371897000,1
89,올림픽홀_뮤즈라이브,서울 송파구 방이동 88-2,37.5170212134621100,127.1260469555663800,49
969,와이스튜디오,서울 광진구 구의동 아차산로 51길 66호 B1,37.5399007243184100,127.0850388983516100,1
634,와팝홀,서울특별시 광진구 능동 18 어린이대공원 내 ,37.5495979218299000,127.0815689746556400,1
781,와플,서울시 강동구 천중로 84,37.5445690056552400,127.1310899898207700,3
675,외계인_커피,서울 강동구 길동 390-30 ,37.5376203662563900,127.1406047455576400,2
79,요기가_표현_갤러리_YOGIGA_Expression_Gallery,서울시 마포구 합정동 412-1,37.5484837892996200,126.9177125240264600,31
536,용산아트홀,서울특별시 용산구 이태원동 34-87,37.5325643545012500,126.9901795545384100,5
1174,용평리조트,강원도 평창군 대관령면 올림픽로 715,37.6551363873000000,128.7038011422000000,1
930,우나앤쿠,서울 동작구 대방동 394-2 진성마블러스 빌딩 B2,37.4999658617474200,126.9275548265628000,2
834,우리금융아트홀,서울특별시 송파구 방이동 88-2 ,37.5170182916970840,127.1260420879878100,2
1044,우정국,서울 마포구 독막로 20길 42 ,37.5469549778419350,126.9276225372539800,1
913,울산_스티키핑거스,울산광역시 남구 달동 1264-5번지 2층,35.5371611624256540,129.3331933363867600,1
583,울산KBS홀,울산광역시 남구 달동 416-7,35.5442629438188700,129.3262197461882000,2
862,원_픽셀_오프라인,서울시 중구 충무로4가 37-1,37.5627049345764100,126.9968715849387500,3
816,원불교서울회관,서울 동작구 흑석동 1-3,37.5097746872880600,126.9639061351584500,1
1185,원스인어블루문,청담동 85-1,37.5254328103000000,127.0401694901000000,3
517,원주_한라대학교_대강당,강원도 원주시 한라대길 28,37.3039828290630400,127.9069237692646500,1
1004,월드리듬센터,서울 마포구 독막로 14,37.5484277533865550,126.9149242563604000,1
856,웨스트브릿지,서울시 마포구 서교동 338-10 B3,37.5536502874205200,126.9261538983958200,22
371,웰리힐리파크구:_성우리조트,강원 횡성군 둔내면 두원리 204-0[고원로 451],37.4907967016010300,128.2504301135025000,1
86,웰콤시어터,서울 중구 장충동2가 190-10,37.5593181782147450,127.0037670663072000,3
620,위락,안산시 단원구 고잔동 756-3번지 ,37.3130069591916960,126.8390262508980800,1
401,유시어터,서울시 강남구 청담동 22-13,37.5222446781484500,127.0412592000454600,1
522,유어마인드,서울 마포구 서교동 326-29,37.5555339828844400,126.9301176379165400,3
1131,유케이라이브펍,서울 종로구 평창동 150-5,37.6070665394000000,126.9719272129000000,1
921,은평창작지원센터,서울 은평구 수색로 261,37.5819719681585550,126.8949560028849100,1
326,을지로입구_미스터피자_앞,서울 중구 을지로2가 199-51,37.5653102954277700,126.9840998103782700,1
690,의정부_과학_도서관_아트홀,경기도 의정부시 신곡동 124-1,37.7449175457865100,127.0689526632713000,1
259,이리카페,서울시 마포구 상수동 337-4,37.5458555703778800,126.9215823186290500,5
955,이음아트홀,대전광역시 유성구 봉명동 553-4 명동프라자 지하1층,36.3531598777389040,127.3407882825481600,1
1163,이자카야_백천,서울시 강남구 신사동 662-16 2층,37.5270549586000000,127.0391431354000000,1
1103,이천문화원,경기도 이천시 영창로 163번길 19,37.2826452717000000,127.4405616271000000,1
768,이층카페,광주광역시 북구 용봉동 141-7,35.1787381406488800,126.9124199421661400,1
769,이태원_우드스톡,서울 용산구 이태원1동 123-26,37.5348135669079140,126.9952797086461800,2
1091,이태원로,서울 용산구 이태원로,37.5343159698000000,126.9910527766000000,2
168,이화여자대학교_삼성홀Samsung_hall,서울시 서대문구 대현동 11-1,37.5625601945655200,126.9474517322221300,5
135,이화여자대학교_학생문화관,서울 서대문구 이화여대길 52-0[대현동 11-1],37.5631580919707400,126.9466725936144400,13
456,인더스트리얼_카바레,서울 마포구 상수동 316-12,37.5483129775297260,126.9208509337845000,1
260,인디고스테이지,서울 마포구 동교동 166-10[홍익로6길 67],37.5569290747851700,126.9247937061799000,1
424,인디문화발전소,서울시 서대문구 대현동104-1 ,37.5578078238247900,126.9425342735819200,1
594,인디스타_스튜디오,서울시광진구자양동848-4지하1층,37.5382257615006550,127.0668293326557300,1
670,인디톡,마포구 서교동 358-34 4층,37.5525529067175300,126.9233800783508700,30
64,인디팬_Indifan,서울시 마포구 상수동 322-1,37.5475671363667000,126.9211142698310000,26
660,인디펍_그레이,서울특별시 서대문구 창천동 49-1 2층,37.5588610127126900,126.9375254591524200,32
676,인디펍_그레이,서울특별시 서대문구 창천동 49-1 2층,37.5588610127126900,126.9375254591524200,2
1149,인생도서관_라운지,마포구 서교동 363-20 B1,37.5511860039000000,126.9218695680000000,1
269,인천_송도커넬워크앞,인천 연수구 송도동 23-1,37.3980823192879000,126.6357787040826700,1
200,인천_아트클럽_바텀라인,인천 중구 신포로23번길 19,37.4714943077101800,126.6237460357768000,2
747,인천삼산월드체육관,인천광역시 부평구 체육관로 60 삼산월드체육관,37.5077010221035600,126.7375375072317400,1
136,인천아트플랫폼,인천광역시 중구 해안동1가 10-1,37.4727111035498200,126.6199596230277400,4
385,인천종합문화예술회관,인천광역시 남동구 예술로 149,37.4475883991542400,126.7000570991889400,8
1079,인터뷰_알,서울 마포구 어울마당로5길 23,37.5492668992498200,126.9192235339616000,1
312,인터파크아트센터아트홀,서울 마포구 서교동 490,37.5508667312834700,126.9137549692075000,23
1138,인터플레이,대전광역시 서구 대덕대로162번길 11 대전,36.3473565790000000,127.3767182340000000,2
694,인하대학교,인천광역시 남구 인하로 100,37.4514897494886500,126.6513897190283000,1
208,일산_지느러미_bar,경기도 일산동구 장항동 864-1 ,37.6571114892563660,126.7704171765820600,1
527,일산_호수공원,경기도 고양 일산동구 장항동 906번지,37.6578899054825060,126.7635194892031500,7
1009,자그마치,서울특별시 성동구 성수이로 88 남정빌딩 1층,37.5426711542880200,127.0567671182252800,1
881,자음과모음,서울특별시 마포구 서교동 396-33,37.5489013357693800,126.9169742394458400,1
935,작설원,부산광역시 중구 광복중앙로 35,35.1025022202344100,129.0307191289779800,1
884,작은_공연장_단,강릉시 경강로 2046번길 5,37.7512216035609140,128.8928067585766500,2
789,잠실보조경기장_일대,서울특별시 송파구 잠실동 10,37.5164791341980800,127.0729995585175500,2
471,잠실종합운동장,서울 송파구 잠실동 10-0[올림픽로 25],37.5164777768961400,127.0730003311649200,3
37,재머스_Jammers,마포구 창전동 6-139,37.5531173383664050,126.9267486454516800,147
242,재미공작소,서울 영등포구 문래동 3가 58-84,37.5142209598616600,126.8954808562897100,107
899,재미난쌀롱,경상남도 김해시 내동 1070-10,35.2442761862391700,128.8681480838203000,3
897,재즈_인_뉴욕_101,경기도 성남시 분당구 백현동 578-1,37.3849444411022600,127.1114396275487500,1
725,재즈다,서울 마포구 서교동 394-93 B1,37.5492533276006100,126.9152854427113100,74
869,재즈앨리,서울 관악구 봉천로62길 7,37.4776395579835500,126.9589607029181300,2
523,잭비님블,서울특별시 마포구 서교동 395-105번지 1F,37.5513570864123600,126.9190356841109200,39
1160,잼투고,서울 강남구 강남대로 346,37.4938538018000000,127.0300612808000000,1
708,쟁이_콜렉티브,대구 광역시 중구 삼덕동 1가 21-24,35.8677756913275700,128.5980174611195500,6
704,전북대학교_삼성문화회관,전북 전주시 덕진구 덕진동1가 664-14,35.8464846209526400,127.1269762779466400,1
248,전주_Radio_Star,전북 전주시 완산구 중화산동 2가 778-1,35.8177292254027300,127.1179806778969700,20
728,전주_남부시장_청년몰,전북 전주시 완산구 전동3가 2-241 남부시장 6동 2층,35.8122137086073900,127.1472144597628900,3
852,전주_라디오가든,전북 전주시 완산구 홍산남로 71,35.8159849465962600,127.1097765093884800,1
336,전주_창작지원센터_2호점,전북 전주시 완산구 경원동3가 78-2번지,35.8192774701446500,127.1498318731723700,6
174,정서진경인아라뱃길,인천광역시 서구 오류동,37.5818507130975200,126.6114332472151700,3
863,정원이_있는_국민책방,서울 마포구 와우산로22길 64,37.5496773380197800,126.9240257969430700,4
943,제3공간서드스페이스,서울 서초구 효령로 276 B104호,37.4843817443580460,127.0144543671114000,1
222,제비다방,서울시 마포구 상수동 330-12 (와우산로24),37.5466385781309100,126.9231100217491400,1100
377,제이스퀘어,부산광역시 금정구 장전1동 391-3,35.2328592091853350,129.0872029600448300,2
650,제일라아트홀,서울시 마포구 상암동 30-2,37.5750455912065500,126.8954774102753500,4
743,제주_겟_스페이스,제주시 광양13길 6-3,33.4986337741512500,126.5314686496352900,14
1099,제주_다다쌀롱,제주도 제주시 이도1동,33.5069402044000000,126.5269768827000000,1
579,제주_미예랑_소극장,제주특별자치도 제주시 이도1동 1404-2,33.5118131960673000,126.5243586454341600,7
299,제주_블루힐,제주시 이도1동 1252-4 ,33.5019317334942460,126.5311198760225300,3
388,제주_재즈_클럽_블루힐,제주특별자치도 제주시 이도1동 1252-4,33.5019317334942460,126.5311198760225300,2
472,제주_카페_세바,제주도 조천읍 선흘리 1093-1,33.5133200884176500,126.7060413822116000,1
291,제주아트센터,제주도 오남로 231 ,33.4752096914700800,126.5155053769936100,3
1000,주말극장_요꼬스튜디오,서울 영등포구 문래동 3가 54-34 B1,37.5139875797694340,126.8964810801220300,1
1007,중구문화의전당,울산광역시 중구 종가로 405,35.5675428773092400,129.3215375611359800,1
1155,중랑구민회관_대극장,서울특별시 중랑구 면목동 378-11,37.5738179058000000,127.0849778337000000,1
718,중앙동_40계단,부산 중앙동 40계단,35.1072658314856000,129.0357677780530400,1
453,지산포레스트리조트,경기 이천시 마장면 해월리 산 28-1,37.2146411627382750,127.3430788968540600,4
402,창원_레트로봉봉,경남 창원시 성산구 중앙동 88-2,35.2269608165605060,128.6792828710996200,1
387,창원_몽크,경남 창원시 성산구 상남동 19-7,35.2203051073001800,128.6850762339736600,6
217,채널_1969,서울 마포구 서교동 394-19,37.5491743184555200,126.9156748157459000,214
1184,책방_탐구생활,성산동 30-2번지,37.5601050573000000,126.9105558001000000,1
730,천년동안도,서울시 종로구 동숭동 1-66번지,37.5824943902624600,127.0030884858168900,1
250,천안_돌체DOLCE,충남 천안시 동남구 대흥동 71번지,36.8087175997016800,127.1490953441655700,9
249,천안_락스테이션Rock_Station,천안시 신부동 386-4,36.8168069384443300,127.1567456766060200,4
682,청계광장,서울특별시 종로구 서린동 14 ,37.5693998934996500,126.9825816355481200,2
586,청년_문화_공감_부드러운_직선,광주 북구 중흥동 275-4,35.1748929551037100,126.9149533343400700,8
1176,청아인문아카데미,서울특별시 서대문구 연세로 5 다길 41,37.5568945039000000,126.9332581200000000,1
982,청와,경상북도 경주시 노서동 81,35.8423501609057600,129.2099150010594100,2
737,청운대학교_인천캠퍼스_공연장_217호,인천광역시 남구 숙골로 113,37.4718001805479500,126.6606466267653100,1
762,청춘쓰리고,서울특별시 마포구 합정동 355-11,37.5470280755809540,126.9181441345126900,4
810,초콜릿뮤직,서울특별시 마포구 상수동 328-14 3F,37.5471393233910360,126.9227881308254700,1
788,초콜릿플래닛,서울특별시 영등포구 당산동 3가 173 지하 1층,37.5267213195207750,126.8973640005946400,3
1017,축제극장_몸짓,강원도 춘천시 춘천로112 (효자동 531번지) 축제극장 몸짓,37.8730964336473550,127.7278125728119800,1
656,춘천_KTandG_상상마당,강원도 춘천시 스포츠타운길 399번길 25,37.8736166145509900,127.7020904866624800,6
202,춘천_문화소통_공간_나눔,강원 춘천시 후평1동 711-29,37.8848870943369300,127.7447763152794400,2
975,충남창조경제혁신센터,충청남도 아산시 배방읍 장재리 364-4,36.7955332266621440,127.1044891501755400,1
564,충무로_자립_본부_조광사진관,서울시 중구 충무로 2가 49-6번지 정석빌딩 지하 1층,37.5624991404359600,126.9901801539863600,29
1203,칠펍,서울특별시 마포구 성미산로 185 지하 1층,37.5633485846000000,126.9260990525000000,1
503,카르페_디엠,마포구 서교동 328-55 2층,37.5552123753728040,126.9286919586721000,5
575,카시오페아,광주광역시 북구 운암동 860,35.1758052506890500,126.8737547198050200,2
547,카파렐리_기타_and_카페,서울특별시 관악구 중앙동 56-121,37.4837029824599100,126.9531322755558300,2
443,카파렐리_사운드라운지_강남_논현점,서울 서초구 반포동 722-38 ,37.5085075709089250,127.0221060875852100,2
599,카페_7,경기도 수원시 권선구 금곡동 758-10,37.2681638133241200,126.9383391588927900,1
346,카페_RIO,서울 마포구 노고산동 54-58,37.5551392513451250,126.9328307497029300,2
459,카페_닐,부산광역시 부산진구 전포동 883-1,35.1512524463880140,129.0627082654416000,1
447,카페_락앤락,서울특별시 종로구 대학로 86,37.5791975905535200,127.0032921885904400,21
413,카페_베짱이,상수동 313-3,37.5484792185837150,126.9215251994352200,3
244,카페_비러스윗사운드,서울시 마포구 서교동 400-2,37.5493100510620400,126.9190831639728400,51
1032,카페_빈자리,서울 영등포구 양평로 22길 7-1,37.5386298198978900,126.8942700578399200,1
794,카페_소리,제주특별자치도 제주시 한경면 저지리 3019-14,33.3188665854710100,126.2689683029251000,1
902,카페_수다,경상남도 통영시 항남동 1-7 ,34.8436857087555400,128.4234208636554800,1
1179,카페_쏭투미,서울 영등포구 양산로23길 15,37.5252835306000000,126.8976058012000000,1
51,카페_언플러그드_Cafe_Unplugged,서울시 마포구 서교동 326-18번지 1층,37.5555046116480800,126.9292122779566200,549
878,카페_에이브릭,서울 마포구 동교로 106 ,37.5544817001193300,126.9138761935597600,1
925,카페_에코브릿지커피,서울시 마포구 서교동 476-25번지,37.5547111385100150,126.9122236152283800,1
985,카페_오후,전남 여수시 여서동 239-4번지,34.7517494462937600,127.7050381901419800,2
359,카페_옹끌,서울특별시 마포구 와우산로29길 48-14,37.5559903595719650,126.9278050766828000,2
478,카페_율,서울 마포구 합정동 185-11,37.5453836330155900,126.9118015145959100,1
760,카페_커먼_인_블루,서울시  마포구 서교동 464-63 1F ,37.5548844487958960,126.9176692714644200,1
438,카페_티앤,서울시 마포구 서교동 392-31,37.5515349141963950,126.9157278093824600,2
646,카페_하도,제주시 구좌읍 하도리 53-39,33.5108227413931500,126.8929513188505400,1
699,카페CCC,부산광역시 금정구 장전3동 418-34,35.2320382799156400,129.0856733668092600,1
669,카페데뮤지까,서울 용산구 효창동 5-160 1층,37.5420079876262000,126.9609169402740700,1
1182,카페바인,서울 서대문구 신촌로 25  1층 ,37.5579952184000000,126.9296309411000000,1
837,카페버닝하트,서울특별시 마포구 서교동 394-19 2층,37.5491707144650100,126.9156748198060000,1
400,카페베네_선정릉점,서울 강남구 역삼동 682-0[봉은사로 326],37.5096554758086850,127.0426640538678400,1
998,카페빡스,서울특별시 마포구 합정동 368-37 ,37.5456569034211540,126.9157919364748400,1
950,카페쁘로푸모,금정구 장전2동 409-30,35.2326005714004300,129.0846289990570600,1
1105,카페성수,서울 성동구 서울숲4길 13,37.5475677927000000,127.0424491203000000,6
997,카페웨스트브릿지,서울특별시 마포구 와우산로25길 6 1층,37.5536430851051300,126.9261629591509400,1
128,카페이누Cafe_InU,마포구 서교동 398-16,37.5495983821786800,126.9190977765732100,7
983,카페취향,울산광역시 남구 무거동 627-19번지 1층,35.5414243301905300,129.2605989050669800,2
1074,커넉스,서울 용산구 이태원로 145 동호프라자.외환은행,37.5345897818055600,126.9899077485576400,1
647,커먼_인_블루,서울시 마포구 서교동 464-63,37.5548844487958960,126.9176692714644200,3
812,커먼키친,경기도 성남시 분당구 삼평동 681 에이치스퀘어 N동 B107호,37.4020664581538200,127.1086459400773800,5
98,커먼플레이스,서울 중구 충무로2가 10,37.5618760251589450,126.9862691802114500,7
974,커피트리_광주,광주광역시 동구 황금동 13-8,35.1479748422919900,126.9150603625543900,1
600,커피팩토리_일산,경기도 고양시 일산서구 덕이동 408-6,37.6931985518195400,126.7535204780086400,1
236,컬리솔_Curly_Sol,서울 마포구 신수동 81-15[서강로16길 63],37.5515229428675500,126.9368752138392400,1
630,코끼리_탈출하다,서울 마포구 동교동 166-3,37.5574592555298600,126.9254393920266600,24
907,코리아크래프트브류어리,충청북도 음성군 원남면 원남산단로 97,36.8896387287480100,127.6828886065439800,6
829,코스모스보스,서울시 마포구 서교동 378-19,37.5520396774288660,126.9159341377057700,2
936,코엑스_오디토리움,서울시 강남구 영동대로 513 코엑스,37.5118232810781200,127.0591597219892900,8
606,코엑스몰,서울특별시 강남구 삼성1동 159,37.5125226294782300,127.0588209484890600,11
971,콘서트하우스_현,인천 우현로 75 명훈빌딩 8층,37.4738805828965340,126.6297339586499100,2
1159,콘텐츠코리아랩_10층_컨퍼런스룸,서울시 종로구 대학로 57 콘텐츠코리아랩,37.5763856833000000,127.0013901579000000,1
215,콜트콜텍_인천부평공장,인천 부평구 갈산동 421-1[부평북로 273],37.5230010550888340,126.7232020934699100,2
65,퀸_라이브홀_Queen_Livehall,서울특별시 서대문구 대현동 104-1,37.5578220169174500,126.9425604366531000,185
52,크랙_CRACK,서울시 마포구 서교동 401-6,37.5486938244200400,126.9191653075626600,34
909,크레이지호스,서울시 강남구 신사동 546-6,37.5217505111177160,127.0229412310682400,1
423,크레이지호스,서울시 강남구 신사동 546-6,37.5217484673217850,127.0229422996151500,7
21,클럽_DRUG드럭DGBD,서울 마포구 서교동 395-17,37.5507452062434800,126.9202087480318300,59
20,클럽_FF,서울특별시 마포구 서교동 407-8,37.5503177380042740,126.9223186100377300,892
194,클럽_딥인투,전북 전주시 완산구 고사동 427-7,35.8186325356179650,127.1426893942072800,16
198,클럽_레드,서대문구 창천동 53-25,37.5582143051693400,126.9343535479054600,22
216,클럽_롤링스톤즈,서울 마포구 동교동 185-1[신촌로 62],37.5563609062961060,126.9326802390376200,42
877,클럽_벡,서울시 마포구 서교동 400-18,37.5492268793976440,126.9186758637576300,4
6,클럽_빵,서울 마포구 서교동  327-18,37.5548595411998000,126.9292853184939700,361
1006,클럽_샤프,망원동 384-23,37.5536276905115600,126.9092462365206400,10
928,클럽_스틸페이스,서울 마포구 잔다리로 10  5층,37.5508905844887900,126.9220328360761400,24
946,클럽_씨닉,부산광역시 부산진구 서면로 28 지하1층,35.1531876402930300,129.0580575305102400,9
40,클럽_에반스_EVANS,서울특별시 마포구 서교동 407-3,37.5502748580543440,126.9228799554735600,1007
432,클럽_에이블,용산구 이태원동 34-69 ,37.5314410248523560,126.9908098756975800,1
692,클럽_쥐똥나무,	인천시 남구 주안동 157-9 ,37.4614687972075600,126.6818663042046200,2
967,클럽_쥬크박스,수원시 팔달구 행궁로65 ,37.2768684533039100,127.0158082455828900,2
1192,클럽_케이_서울,선릉로 524,37.5066564181000000,127.0483885578000000,1
393,클럽_타Club_TA,서울시 마포구 서교동 407-6,37.5502962211566500,126.9224815907505400,443
114,클럽대공분실,서울 성북구 석관동 산 1-5[화랑로32길 146-20],37.6031340521293840,127.0541395983249800,18
1212,클럽딥,서울시 서대문구 창천동 448  지하 1층,37.5615365064000000,126.9272688863000000,1
1129,클럽씨닉,부산광역시 부산진구 부전동 서면로 28 지하1층,35.1531876403000000,129.0580575305000000,4
696,클럽에어,한남동 737-24,37.5354695808551300,126.9985472418046600,1
545,클럽자스,서울시 강남구 신사동 530-3,37.5236715776605650,127.0222675922635200,5
990,클럽쥬크박스,경기도 수원시 팔달구 행궁로 65,37.2768684533039100,127.0158082455828900,9
714,클럽팜,서울 마포구 서교동 363-23,37.5511395518840800,126.9224761906574900,3
496,클럽피드백,경남 창원시 성산구 상남동 73-5 경창상가 B1,35.2201664529641200,128.6793278503792800,6
1115,킨텍스_제2전시장_8홀,경기도 고양시 일산서구 대화동 2600번지,37.6686435331000000,126.7442983713000000,2
59,킹_오브_블루스_KING_OF_BLUES,서울시 마포구 서교동 328-25,37.5556408321204000,126.9278959591200000,8
1082,탈영역_우정국,마포구 독막로20길 42,37.5469549778419350,126.9276225372539800,1
441,태공장,영등포구 양평동1가 36,37.5233272085681100,126.8904701458017400,1
90,태평양홀,서울 성북구 석관동 120-3,37.6103692335233000,127.0645732702810000,1
1085,태화강대공원,울산광역시 중구 태화동 107 ,35.5473330750359400,129.2978851689927000,2
437,텅스텐홀,서울시 마포구 서교동 335-5,37.5551004242308100,126.9283163316112100,83
758,테이크아웃드로잉_한남동,용산구 한남동 683-139,37.5371202178906740,127.0010816724667300,6
939,토끼굴,마포구 합정동 410-12  2f,37.5481601011570100,126.9186815492322200,18
917,토리의_꿈,제주도 제주시 한경면 저지리 3143-2,33.3174149934635000,126.2692725163571000,1
353,토모카,서울 동작구 흑석동 221-0[흑석로10다길 10],37.5045617935311600,126.9569438486897500,1
819,통영프린지,경상남도 통영시,34.8543734561612300,128.4330867443079000,2
844,퇴근길책한잔,서울시 마포구 염리동 9-60번지 1층,37.5555534141017600,126.9466318972199000,7
683,튤립커피,서울 중구 을지로2가 199-44 4층,37.5647616888650050,126.9834293576396000,5
746,트라이브,서울 마포구 합정동 413-15,37.5487567705280300,126.9163995306802800,4
911,티움,서울특별시 마포구 동교동 170-26,37.5568542749379900,126.9262186419992800,10
924,티움,마포구 동교동 170-26,37.5568542749379900,126.9262186419992800,2
406,파우와우_Powwow,서울특별시 용산구 이태원동 559번지,37.5372384435388700,126.9870380132692000,54
257,파주출판문화단지_야외무대,경기 파주시 문발동 530-1[문발로 141],37.7070739681632360,126.6857774511318600,1
258,파주출판문화단지_야외무대,경기 파주시 문발동 530-1[문발로 141],37.7070739681632360,126.6857774511318600,1
565,판당고,서울 마포구 상수동 330-15,37.5469342644345260,126.9233541446356000,2
60,팜_Club_Palm,서울시 마포구 서교동 363-23,37.5511323772577000,126.9224774842360000,2
695,팜스스테이지,서울특별시 중구 장충동2가 14-67,37.5525741614711300,126.9995654309856800,1
533,팝_라운지,서울 강남구 신사동 512-9 mg tower 202호,37.5179557948032640,127.0212930899921700,1
735,팝_펍,서울특별시 강남구 신사동 512-9 mgtower 202호,37.5179557948032640,127.0212930899921700,1
1200,팡타_개라지-_복합문화공간_에무Emu,서울 종로구 경희궁1가길 7 복합문화공간 에무,37.5720676612000000,126.9690107779000000,1
1005,패션문화공간_ich_22,경기도 광주시 오포읍 신현리 565-8,37.3743376700488740,127.1613666471069300,1
1180,페이머스_그라운드,서울 마포구 토정로3길 11,37.5462070850000000,126.9140848745000000,1
825,포스트_포에틱스_옥상,서울 용산구 이태원로 240번지,37.5361074981404800,127.0001629275406000,1
466,포은아트홀,용인시 수지구 죽전동 1003-237,37.3258438193410100,127.1046095408547100,3
1132,포천아트밸리,경기도 포천시 신북면 기지리 282,37.9234895999000000,127.2416140352000000,1
648,폼텍_웍스홀,서울특별시 마포구 잔다리로3길 34 스페이스맘 빌딩 1층,37.5506967843606000,126.9179183168522500,51
822,프레임팬션,제주특별자치도 제주시 애월읍 하귀 2리 2707-2,33.4848632553444650,126.3924299077687400,1
633,프리버드,서울시 마포구 서교동 408-17 지하,37.5493800833005500,126.9213871104892900,340
1161,프리버드_라이브홀,서울특별시 서대문구 연희로 14 B1,37.5600802478000000,126.9268673798000000,3
1036,프리즘홀,마포구 서교동 395-152,37.5516587656379500,126.9175098585211300,2
1037,프리즘홀,마포구 서교동 395-152,37.5516587656379500,126.9175098585211300,1
137,프리즘홀,서울시 마포구 서교동 395-152,37.5516767919082100,126.9175188920638800,210
786,플라이아트홀,서울시 노원구 공릉동 653-10 B1,37.6192856352271700,127.0796469647409500,3
75,플래툰_쿤스트할레,서울 강남구 논현동 97-22,37.5205077975906400,127.0349180556873800,3
1088,플랫폼창동61,서울시 도봉구 마들로 11길 74  ,37.6540768713000000,127.0487379033000000,6
1172,플러그인,울산광역시 중구 문화의거리 6,35.5556245954000000,129.3218640968000000,1
972,플러그인,울산 중구 옥교동 262-2 지하1층,35.5556219273867300,129.3218155034477000,3
320,플레이그라운드,서울 마포구 서교동 325-13,37.5548100912405000,126.9307984924370300,1
1080,플레이스사이,서울 성동구 성수2가3동 19-7 지하1층,37.5431468460828600,127.0638917017299600,2
553,플리플리,서울 용산구 한남동 683-134 3호,37.5359525261383000,126.9999547424435000,1
1084,피노,서울특별시 서초구 반포4동 72-9,37.4978941338710500,126.9991812541337600,1
1045,피에스타2,서울 광진구 자양4동 10-29,37.5393508539664700,127.0656807428789000,2
1039,필동_골목,서울시 중구 필동 1가 24-11,37.5603224632179500,126.9919053140224600,1
165,필리스_펍,서울 용산구 신흥로 9-0[용산동2가 5-1608],37.5393584787294400,126.9864457519951900,1
91,핑크문,서울 마포구 서교동 360-10,37.5519262508726260,126.9239885582434500,63
1147,하고_카페,대구시 남구 큰골길 79,35.8369621692000000,128.5804225842000000,1
1201,하나투어_브이홀,서울 마포구 홍익로 25 서교호텔 별관 지하 3층,37.5544044318000000,126.9219657993000000,2
529,하늘공원월드컵공원_내,서울특별시 마포구 상암동 482,37.5672767504822360,126.8680280836931700,1
765,하드록카페,서울시 송파구 올림픽로 300 롯데월드몰 쇼핑몰동 5층,37.5137525026038600,127.1044460998175100,3
1089,하드록카페_부산,부산 해운대구 해운대해변로298번길 15 A동 1층,35.1609333505000000,129.1651767655000000,1
551,하루키,서울시 마포구 동교동 166-3(지하),37.5574592555298600,126.9254393920266600,20
618,하멜아트홀,광주 남구 봉선동 1041-6,35.1278259861034900,126.9128080128145800,3
1189,하멜아트홀,광주광역시 남구 봉선1로70,35.1278115611000000,126.9128036396000000,1
598,하우스_버닝하트,서울시 마포구 서교동 394-19,37.5491743184555200,126.9156748157459000,3
189,하울앳더문,대전 유성구 궁동 402-3 ,36.3628991101056200,127.3509735920508600,6
596,학전블루소극장,서울시 종로구 대학로 12길 46 삼광빌딩(동숭동),37.5820582912420100,127.0037179355789900,1
277,한국문화의집KOUS,서울시 강남구 대치동 944-22,37.5068404241233750,127.0604688186090000,1
329,한국예술종합학교,서울 성북구 화랑로32길 146-35[석관동 333-1],37.6038568743125700,127.0575465388191000,1
903,한동대학교,경상북도 포항시 북구 흥해읍 한동로 558 한동대학교,36.1023019858771200,129.3892650759415500,1
485,한미_우호의_광장,경기도 동두천시 보산동,37.9176348894165600,127.0613165310537000,1
506,한양대_에리카,경기 안산시 상록구 한양대학로 55,37.2980326768826340,126.8344655041636900,1
1150,한일고속_골드스텔라호,전라남도 여수시 덕충동 1998 여객선터미널,34.7531959192000000,127.7542750459000000,1
363,한잔의_룰루랄라,서울특별시 마포구 동교동 166-5,37.5574052642964100,126.9255480950668400,23
836,한전아트센터,서울특별시 서초구 서초동 1355 ,37.4856983869408900,127.0280001741305200,1
449,한중문화관,인천광역시 중구 제물량로 238,37.4735830421553500,126.6187749672957000,1
271,해운대_노보텔_앞_BIFF빌리지,부산광역시 해운대구 중1동 1405-16,35.1601214723468000,129.1630950329500300,3
188,해운대문화회관,부산광역시 해운대구 좌동 1458-1,35.1711620357241000,129.1739799108313500,9
461,해피럭키데이,서울시 마포구 서교동325-9,37.5547742652932800,126.9311561479196800,1
701,해피시어터,서울특별시 종로구 동숭동 1-60,37.5818925389480750,127.0025722079503200,3
1058,핸드릭스,부산진구 중앙대로680번길 45  2층,35.1535704591817900,129.0616178615947000,1
1190,허니비클럽,경기도 수원시 팔달구 권광로187번길 38,37.2650798872000000,127.0307908338000000,1
195,현대카드_MUSIC_팝업스토어,서울특별시 마포구 서교동 407-1 ,37.5505559883942100,126.9228447475309500,4
454,혜화역_4번_출구_앞_쉼터,서울 종로구 명륜4가 1-0[대명길 3],37.5834034081038550,127.0013268802757000,3
774,혼자_노는_양,서울시 관악구 낙성대동 1625-25 1층,37.4772177467205500,126.9585629790174600,2
805,홈메이드콘서트,서울시 성동구 서울숲 2길 29,37.5468291211823340,127.0420367978250900,4
1041,홍대_CGV,서울특별시 마포구 양화로 153,37.5564951853545000,126.9226336146414000,9
18,홍대_KTandG_상상마당_라이브홀,서울시 마포구 서교동 367-5,37.5510016433744500,126.9210323275657800,271
1070,홍대_무드,서울 마포구 서교동 375-45 지하,37.5545788343989900,126.9187153171025600,2
552,홍대_북리브로_홀,서울 마포구 동교동 166-15 지하2층 북리브로 홀,37.5573147690466600,126.9249234527114100,4
653,홍대_블루라이트_라이브홀,서울시 마포구 서교동 358-116지층,37.5531143295437800,126.9221572697074700,14
360,홍대_섬,서울 마포구 서교동 325-13,37.5547415970370900,126.9307668691801000,3
1127,홍대_스텀프,서울시 마포구 서교동 358-121 지하,37.5528516100000000,126.9227233900000000,2
519,홍대_앞_주차장거리,서울 마포구 서교동 365-28,37.5513262290187600,126.9213714864081800,5
1049,홍대_웨스트브릿지,서울특별시 마포구 서교동 338-10,37.5536502874205200,126.9261538983958200,3
1050,홍대_카페_피카소,서울 마포구 홍익로5길 65,37.5525935333342700,126.9194417550104400,2
356,홍대_클럽_베라,마포구 서교동 356-1,37.5544045599656760,126.9221571503082000,2
87,홍대_프리마켓_놀이터,서울 마포구 서교동 359,37.5522645843453000,126.9233227822930000,37
296,홍대_프리스비_매장앞,서울 마포구 서교동 358-12,37.5534934955620800,126.9232626502749600,1
166,홍대걷고싶은거리,서울 마포구 동교동 163-8[홍익로 24],37.5546498719810560,126.9225190380499300,10
595,홍대고양이방석집_고고,서울시 마포구 서교동 407-8,37.5502780851750440,126.9223050713289800,2
256,홍대앞_주차장길_끝,서울 마포구 상수동 318-1[어울마당로 36],37.5482694727431860,126.9204752842851700,6
918,화성아트홀,경기도 화성시 태안로 145,37.2030693108333200,127.0328112605904600,1
572,효리식당,서초구 방배동 768-20,37.4940549717977100,126.9856116172721100,4
1188,효봉포차_3호점,서울시 마포구 와우산로18길 12,37.5507042857000000,126.9237305225000000,2
574,후두둑,전라남도 순천시 석현동 131-2,34.9702777269393100,127.4838069833474200,1
427,흐지부지,서울시 마포구 서교동 407-3,37.5502676745289000,126.9228495771396400,5
160,히스페이지,경기 고양시 일산동구 장항동 765-0[중앙로 1305-56] 라페스타 D동 215호,37.6612658095840660,126.7680968469916400,3
